,id,created_at,text,location_url,lat,lng
0,1539857209210839041,2022-06-23 06:25:42+00:00,"b'En la direcci\xc3\xb3n Aquiles Serdan, Tierra y Libertad, Navojoa, un veh\xc3\xadculo de #CruzRojaMexicana atiende un #accidente de #tr\xc3\xa1nsito, evita esas vialidades https://t.co/QZATOhRFmp'",https://t.co/QZATOhRFmp,27.0772501,-109.4169878
1,1539849379888128002,2022-06-23 05:54:35+00:00,"b'Personal de #CruzRojaMexicana auxilian a un paciente en Londres, Prados Del Tepeyac, Cajeme, debido a un #accidente de #tr\xc3\xa1nsito https://t.co/q7If4FkKRA'",https://t.co/q7If4FkKRA,27.4797596,-109.9578736
2,1539836797601161218,2022-06-23 05:04:35+00:00,"b'Estamos atendiendo en #CruzRojaMexicana un #accidente de #tr\xc3\xa1nsito en Conocido, centro, Benito Ju\xc3\xa1rez, extrema precacuciones al pasar por ese lugar https://t.co/ziFXBqmu7W'",https://t.co/ziFXBqmu7W,27.12767,-109.84091
3,1539833560349249538,2022-06-23 04:51:44+00:00,"b'Un #accidente de #tr\xc3\xa1nsito en Solidaridad, Sahuaro, Hermosillo fue reportado a #CruzRojaMexicana, te recomendamos tener cuidado al transitar en esa zona https://t.co/hG0hoUYuKN'",https://t.co/hG0hoUYuKN,28.8204192,-109.9170851
4,1539818561639780352,2022-06-23 03:52:08+00:00,"b'Estamos atendiendo en #CruzRojaMexicana un #accidente de #tr\xc3\xa1nsito en Abelardo l. Rodriguez, San Benito, Hermosillo, extrema precacuciones al pasar por ese lugar https://t.co/f8TE3r8ISy'",https://t.co/f8TE3r8ISy,29.091275,-110.9582457
5,1539813289764454403,2022-06-23 03:31:11+00:00,"b'Veh\xc3\xadculos de #emergencia y #CruzRojaMexicana acuden a Blvd. Aviacion, Aviaci\xc3\xb3n, Caborca a auxiliar por un #accidente de #tr\xc3\xa1nsito https://t.co/ABtb3V0FSV'",https://t.co/ABtb3V0FSV,30.7288422,-112.1743186
6,1539812165963730944,2022-06-23 03:26:43+00:00,"b'Una #ambulancia de #CruzRojaMexicana labora atendiendo a un paciente herido por un #accidente de #tr\xc3\xa1nsito en Alferez Juan Bautista de Escalante, Cumbres Residencial, Hermosillo https://t.co/DT3ohxI4PK'",https://t.co/DT3ohxI4PK,29.1358474,-110.9514087
7,1539806896504426497,2022-06-23 03:05:47+00:00,"b'En la direcci\xc3\xb3n Francisco i. Madero, La Caridad, Hermosillo, un veh\xc3\xadculo de #CruzRojaMexicana atiende un #accidente de #tr\xc3\xa1nsito, evita esas vialidades https://t.co/U5aE4Za7KN'",https://t.co/U5aE4Za7KN,29.1487797,-110.9813999
8,1539803637169414149,2022-06-23 02:52:49+00:00,"b'Un #accidente de #tr\xc3\xa1nsito en Conocido, centro, Benito Ju\xc3\xa1rez fue reportado a #CruzRojaMexicana, te recomendamos tener cuidado al transitar en esa zona https://t.co/xTAgKNdVSk'",https://t.co/xTAgKNdVSk,27.1292349,-109.8372969
9,1539802168370372608,2022-06-23 02:46:59+00:00,"b'Personal de #CruzRojaMexicana auxilian a un paciente en San Agustin, San Miguelito, Nogales, debido a un #accidente de #tr\xc3\xa1nsito https://t.co/DN6iI9jS6F'",https://t.co/DN6iI9jS6F,30.5183332,-108.9672222
10,1539791476326006786,2022-06-23 02:04:30+00:00,"b'Una #ambulancia de #CruzRojaMexicana labora atendiendo a un paciente herido por un #accidente de #tr\xc3\xa1nsito en Carreterra Federal a Janos, Nuevo Progreso, Agua Prieta https://t.co/JyevVk1Vny'",https://t.co/JyevVk1Vny,31.3141251,-109.525569
11,1539778980613611522,2022-06-23 01:14:51+00:00,"b'#CruzRojaMexicana est\xc3\xa1 atendiendo un #accidente de #tr\xc3\xa1nsito en Carretera Agua Prieta Nacozari, Cabullona, Agua Prieta con una #ambulancia donada con tus aportaciones https://t.co/CHFYQY3EkT'",https://t.co/CHFYQY3EkT,31.1502701,-109.542211
12,1539774118425464832,2022-06-23 00:55:32+00:00,"b'Una #ambulancia de #CruzRojaMexicana est\xc3\xa1 atendiendo un #accidente de #tr\xc3\xa1nsito en Petrolera, Petrolera, Guaymas extrema precauciones al pasar por ese lugar https://t.co/FmsSkA6zey'",https://t.co/FmsSkA6zey,27.9343588,-110.9278338
13,1539751997267742720,2022-06-22 23:27:38+00:00,"b'Al transitar por Boulevard Subida al Microndas, Perla Marina, Guaymas encontrar\xc3\xa1s un #accidente de #tr\xc3\xa1nsito atendido por #CruzRojaMexicana, ten cuidado y disminuye tu velocidad  https://t.co/mf9PlbjSkA'",https://t.co/mf9PlbjSkA,27.9574273,-110.9178856
14,1539750612979646465,2022-06-22 23:22:07+00:00,"b'Estamos atendiendo en #CruzRojaMexicana un #accidente de #tr\xc3\xa1nsito en Avenida Alvaro Obregon, Parque Industrial de Nogales, Nogales, extrema precacuciones al pasar por ese lugar https://t.co/Ze88ou7cb3'",https://t.co/Ze88ou7cb3,31.2551739,-110.9548602
15,1539740629797855234,2022-06-22 22:42:27+00:00,"b'Personal de #CruzRojaMexicana auxilian a un paciente en Juarez, Los Pinos, Cananea, debido a un #accidente de #tr\xc3\xa1nsito https://t.co/gUk1fXGUHL'",https://t.co/gUk1fXGUHL,30.9845898,-110.2892246
16,1539732400564994048,2022-06-22 22:09:45+00:00,"b'Personal de #CruzRojaMexicana auxilian a un paciente en Carretera Internacional, Santa Clara, Guaymas, debido a un #accidente de #tr\xc3\xa1nsito https://t.co/trpC7oAF66'",https://t.co/trpC7oAF66,27.9995618,-110.9260129
17,1539725545818275840,2022-06-22 21:42:31+00:00,"b'En la direcci\xc3\xb3n Av Chihuahua y 12, Sonora, San Luis R\xc3\xado Colorado, un veh\xc3\xadculo de #CruzRojaMexicana atiende un #accidente de #tr\xc3\xa1nsito, evita esas vialidades https://t.co/cMoyH7Lud7'",https://t.co/cMoyH7Lud7,32.4485693,-114.7254233
18,1539718054405357568,2022-06-22 21:12:45+00:00,"b'Un #accidente de #tr\xc3\xa1nsito en General Bernardo Reyes, Jes\xc3\xbas Garcia, Hermosillo fue reportado a #CruzRojaMexicana, te recomendamos tener cuidado al transitar en esa zona https://t.co/WdAH2SqJq8'",https://t.co/WdAH2SqJq8,29.1154697,-110.9700366
19,1539712790767849474,2022-06-22 20:51:50+00:00,"b'Un #accidente de #tr\xc3\xa1nsito en 11, Caborca Centro, Caborca fue reportado a #CruzRojaMexicana, te recomendamos tener cuidado al transitar en esa zona https://t.co/2lOFw6EL06'",https://t.co/2lOFw6EL06,30.7123741,-112.1519636
20,1539712469794521090,2022-06-22 20:50:33+00:00,"b'Personal de #CruzRojaMexicana auxilian a un paciente en Ruiz Cortinez, San Rafael, Puerto Pe\xc3\xb1asco, debido a un #accidente de #tr\xc3\xa1nsito https://t.co/cwDqNwy1YG'",https://t.co/cwDqNwy1YG,31.3269236,-113.4938969
21,1539710927548858372,2022-06-22 20:44:26+00:00,"b'Una #ambulancia de #CruzRojaMexicana labora atendiendo a un paciente herido por un #accidente de #tr\xc3\xa1nsito en Agustin de Vildosola, Emiliano Zapata, Hermosillo https://t.co/b3z2M2FaZ0'",https://t.co/b3z2M2FaZ0,29.0494792,-110.9573469
22,1539706550411206656,2022-06-22 20:27:02+00:00,"b'Veh\xc3\xadculos de #emergencia y #CruzRojaMexicana acuden a Carlos Quintero Arce, Villa Bonita, Hermosillo a auxiliar por un #accidente de #tr\xc3\xa1nsito https://t.co/lEIEXw6fTL'",https://t.co/lEIEXw6fTL,29.0627143,-111.0069949
23,1539704402856083458,2022-06-22 20:18:30+00:00,"b'Personal de #CruzRojaMexicana auxilian a un paciente en Obregon, Caborca Centro, Caborca, debido a un #accidente de #tr\xc3\xa1nsito https://t.co/2lOFw6EL06'",https://t.co/2lOFw6EL06,30.7123741,-112.1519636
24,1539696629682429952,2022-06-22 19:47:37+00:00,"b'En la direcci\xc3\xb3n Periferico Norte, Modelo, Hermosillo, un veh\xc3\xadculo de #CruzRojaMexicana atiende un #accidente de #tr\xc3\xa1nsito, evita esas vialidades https://t.co/OKk4VOrYpj'",https://t.co/OKk4VOrYpj,29.1035352,-110.9581147
25,1539675855760359426,2022-06-22 18:25:04+00:00,"b'Una #ambulancia de #CruzRojaMexicana labora atendiendo a un paciente herido por un #accidente de #tr\xc3\xa1nsito en Paseo de las Quintas, Staus, Hermosillo https://t.co/KUXJgNJDfk'",https://t.co/KUXJgNJDfk,29.0915074,-110.9957435
26,1539667297102663687,2022-06-22 17:51:03+00:00,"b'#CruzRojaMexicana est\xc3\xa1 ayudando en un #accidente de #tr\xc3\xa1nsito en Carretera Cananea Agua Prieta, El Dorado, Cananea, ten cuidado al pasar por el lugar https://t.co/iBnvpyaEXy'",https://t.co/iBnvpyaEXy,31.0096482,-110.2556697
27,1539665772007620610,2022-06-22 17:45:00+00:00,"b'En la direcci\xc3\xb3n Enrique Mazon Lopez, San Luis, Hermosillo, un veh\xc3\xadculo de #CruzRojaMexicana atiende un #accidente de #tr\xc3\xa1nsito, evita esas vialidades https://t.co/WQeCkdjT58'",https://t.co/WQeCkdjT58,29.1000559,-110.9283103
28,1539654406190370818,2022-06-22 16:59:50+00:00,"b'Una #ambulancia de #CruzRojaMexicana est\xc3\xa1 atendiendo un #accidente de #tr\xc3\xa1nsito en Carretera Sonoyta a san Luis, Los vidrios, General Plutarco El\xc3\xadas Calles extrema precauciones al pasar por ese lugar https://t.co/K3xM86RMON'",https://t.co/K3xM86RMON,31.8664442,-112.8572166
29,1539640029756129283,2022-06-22 16:02:42+00:00,"b'En la direcci\xc3\xb3n Antonio Quiroga, Villa Mercedes, Hermosillo, un veh\xc3\xadculo de #CruzRojaMexicana atiende un #accidente de #tr\xc3\xa1nsito, evita esas vialidades https://t.co/UVH6kBXXjx'",https://t.co/UVH6kBXXjx,29.1102822,-111.0281468
30,1539635187256115200,2022-06-22 15:43:28+00:00,"b'En la direcci\xc3\xb3n Sin Nombre, La L\xc3\xadnea (La L\xc3\xadnea de Basconcobe), Etchojoa, un veh\xc3\xadculo de #CruzRojaMexicana atiende un #accidente de #tr\xc3\xa1nsito, evita esas vialidades https://t.co/AypRlOzEUY'",https://t.co/AypRlOzEUY,26.9534417,-109.6718579
31,1539632286013997057,2022-06-22 15:31:56+00:00,"b'#CruzRojaMexicana est\xc3\xa1 ayudando en un #accidente de #tr\xc3\xa1nsito en Veracruz, San Benito, Hermosillo, ten cuidado al pasar por el lugar https://t.co/a8s5OyGSlT'",https://t.co/a8s5OyGSlT,29.0926081,-110.9655659
32,1539632209556013056,2022-06-22 15:31:38+00:00,"b'Al transitar por Xolotl, Cuauht\xc3\xa9moc, Hermosillo encontrar\xc3\xa1s un #accidente de #tr\xc3\xa1nsito atendido por #CruzRojaMexicana, ten cuidado y disminuye tu velocidad  https://t.co/hmimtJB8mk'",https://t.co/hmimtJB8mk,29.0268914,-110.9525127
33,1539629390551818241,2022-06-22 15:20:26+00:00,"b'Estamos atendiendo en #CruzRojaMexicana un #accidente de #tr\xc3\xa1nsito en Av Zacatecas y 47, Progreso, San Luis R\xc3\xado Colorado, extrema precacuciones al pasar por ese lugar https://t.co/iSuaI3mfRL'",https://t.co/iSuaI3mfRL,32.4472212,-114.7350702
34,1539616321020772352,2022-06-22 14:28:30+00:00,"b'Veh\xc3\xadculos de #emergencia y #CruzRojaMexicana acuden a Luis Encinas Jhonson, Alameda, Hermosillo a auxiliar por un #accidente de #tr\xc3\xa1nsito https://t.co/oSmnxEs01Y'",https://t.co/oSmnxEs01Y,29.0924922,-110.9831236
35,1539496515122696192,2022-06-22 06:32:26+00:00,"b'En la direcci\xc3\xb3n No Reeleccion Final, ferrocarrilera, Puerto Pe\xc3\xb1asco, un veh\xc3\xadculo de #CruzRojaMexicana atiende un #accidente de #tr\xc3\xa1nsito, evita esas vialidades https://t.co/gOk0XVzlLp'",https://t.co/gOk0XVzlLp,31.3174868,-113.5445772
36,1539494614058643457,2022-06-22 06:24:53+00:00,"b'#CruzRojaMexicana est\xc3\xa1 atendiendo un #accidente de #tr\xc3\xa1nsito en Plutarco Elias Calle, Jacarandas, Navojoa con una #ambulancia donada con tus aportaciones https://t.co/mhJuoOySYp'",https://t.co/mhJuoOySYp,27.0806551,-109.425205
37,1539464579373219841,2022-06-22 04:25:32+00:00,"b'Un #accidente de #tr\xc3\xa1nsito en Av. Obregon y 27, Bur\xc3\xb3crata, San Luis R\xc3\xado Colorado fue reportado a #CruzRojaMexicana, te recomendamos tener cuidado al transitar en esa zona https://t.co/7Mfb8hHNwS'",https://t.co/7Mfb8hHNwS,32.4672204,-114.7410067
38,1539461023660486658,2022-06-22 04:11:24+00:00,"b'Al transitar por Calle Cuarta, Esqueda Centro, Fronteras encontrar\xc3\xa1s un #accidente de #tr\xc3\xa1nsito atendido por #CruzRojaMexicana, ten cuidado y disminuye tu velocidad  https://t.co/IdBNZYMa7t'",https://t.co/IdBNZYMa7t,30.7244807,-109.5875586
39,1539457962086891520,2022-06-22 03:59:14+00:00,"b'Al transitar por Simon Morua, Puerto Pe\xc3\xb1asco Centro, Puerto Pe\xc3\xb1asco encontrar\xc3\xa1s un #accidente de #tr\xc3\xa1nsito atendido por #CruzRojaMexicana, ten cuidado y disminuye tu velocidad  https://t.co/NgGyp9toM7'",https://t.co/NgGyp9toM7,31.3192141,-113.5356487
40,1539457208777326594,2022-06-22 03:56:14+00:00,"b'En la direcci\xc3\xb3n Ctm, Aves Del Castillo, Cajeme, un veh\xc3\xadculo de #CruzRojaMexicana atiende un #accidente de #tr\xc3\xa1nsito, evita esas vialidades https://t.co/3LhnTIjWu4'",https://t.co/3LhnTIjWu4,27.4506598,-109.9478888
41,1539431862048800768,2022-06-22 02:15:31+00:00,"b'Al transitar por Club Rotario, Deportiva, Navojoa encontrar\xc3\xa1s un #accidente de #tr\xc3\xa1nsito atendido por #CruzRojaMexicana, ten cuidado y disminuye tu velocidad  https://t.co/7toqcATbcl'",https://t.co/7toqcATbcl,27.0626455,-109.4611508
42,1539425799895502848,2022-06-22 01:51:26+00:00,"b'#CruzRojaMexicana est\xc3\xa1 atendiendo un #accidente de #tr\xc3\xa1nsito en Solidaridad, Residencial de Anza, Hermosillo con una #ambulancia donada con tus aportaciones https://t.co/nr5rxsrELu'",https://t.co/nr5rxsrELu,29.0842315,-110.9871745
43,1539422055397003269,2022-06-22 01:36:33+00:00,"b'Personal de #CruzRojaMexicana auxilian a un paciente en Alferez Juan Bautista de Escalante, Cumbres Residencial, Hermosillo, debido a un #accidente de #tr\xc3\xa1nsito https://t.co/DT3ohxI4PK'",https://t.co/DT3ohxI4PK,29.1358474,-110.9514087
44,1539417789949169667,2022-06-22 01:19:36+00:00,"b'Al transitar por Angel Garcia Aburto, Jes\xc3\xbas Garcia, Hermosillo encontrar\xc3\xa1s un #accidente de #tr\xc3\xa1nsito atendido por #CruzRojaMexicana, ten cuidado y disminuye tu velocidad  https://t.co/LtfEXYcyG1'",https://t.co/LtfEXYcyG1,29.1130141,-110.9631593
45,1539416362690412545,2022-06-22 01:13:56+00:00,"b'#CruzRojaMexicana est\xc3\xa1 atendiendo un #accidente de #tr\xc3\xa1nsito en Luis Encinas Jhonson, San Benito, Hermosillo con una #ambulancia donada con tus aportaciones https://t.co/a8s5OyGSlT'",https://t.co/a8s5OyGSlT,29.0926081,-110.9655659
46,1539414228771213312,2022-06-22 01:05:27+00:00,"b'Una #ambulancia de #CruzRojaMexicana est\xc3\xa1 atendiendo un #accidente de #tr\xc3\xa1nsito en Carretera Internacional, Acacias Residencial, Nogales extrema precauciones al pasar por ese lugar https://t.co/jdfm37ZRkI'",https://t.co/jdfm37ZRkI,31.2920883,-110.9639737
47,1539410937127620608,2022-06-22 00:52:22+00:00,"b'Un #accidente de #tr\xc3\xa1nsito en Callejon Jalisco, Urbanizable 4, Cajeme fue reportado a #CruzRojaMexicana, te recomendamos tener cuidado al transitar en esa zona https://t.co/y8fIbC8fuu'",https://t.co/y8fIbC8fuu,27.4891812,-109.9285675
48,1539403169461043201,2022-06-22 00:21:30+00:00,"b'Una #ambulancia de #CruzRojaMexicana labora atendiendo a un paciente herido por un #accidente de #tr\xc3\xa1nsito en Av. Mexico y 36, M\xc3\xa9xico, San Luis R\xc3\xado Colorado https://t.co/wVZ3Exw2v7'",https://t.co/wVZ3Exw2v7,32.4373641,-114.7494440
49,1539385891411615744,2022-06-21 23:12:51+00:00,"b'Veh\xc3\xadculos de #emergencia y #CruzRojaMexicana acuden a Alfarez Juan Bautista de Escalante (progreso), Solidaridad Vildosola, Hermosillo a auxiliar por un #accidente de #tr\xc3\xa1nsito https://t.co/zW33QazF6F'",https://t.co/zW33QazF6F,29.037645,-110.9587837
50,1539382260868304896,2022-06-21 22:58:25+00:00,"b'#CruzRojaMexicana est\xc3\xa1 ayudando en un #accidente de #tr\xc3\xa1nsito en Carretera 100, Miguel Alem\xc3\xa1n Centro, Hermosillo, ten cuidado al pasar por el lugar https://t.co/31de7f5yMf'",https://t.co/31de7f5yMf,29.0931691,-110.9654845
51,1539374786865991681,2022-06-21 22:28:44+00:00,"b'Una #ambulancia de #CruzRojaMexicana labora atendiendo a un paciente herido por un #accidente de #tr\xc3\xa1nsito en Solidaridad, Solidaridad Vildosola, Hermosillo https://t.co/zW33QazF6F'",https://t.co/zW33QazF6F,29.037645,-110.9587837
52,1539361012247314433,2022-06-21 21:33:59+00:00,"b'#CruzRojaMexicana est\xc3\xa1 atendiendo un #accidente de #tr\xc3\xa1nsito en Lopez del Castillo, Eusebio Kino, Hermosillo con una #ambulancia donada con tus aportaciones https://t.co/hkj5LzyuXr'",https://t.co/hkj5LzyuXr,29.1359927,-110.9867518
53,1539349897304055809,2022-06-21 20:49:49+00:00,"b'Una #ambulancia de #CruzRojaMexicana est\xc3\xa1 atendiendo un #accidente de #tr\xc3\xa1nsito en Lazaro Cardenas, Reforma Norte, Hermosillo extrema precauciones al pasar por ese lugar https://t.co/5HIcOQCHci'",https://t.co/5HIcOQCHci,29.1154865,-110.9827038
54,1539331881744875521,2022-06-21 19:38:14+00:00,"b'En 13, Aviaci\xc3\xb3n, Caborca, elementos de #CruzRojaMexicana est\xc3\xa1n ayudando en un #incendio https://t.co/ABtb3V0FSV'",https://t.co/ABtb3V0FSV,30.7288422,-112.1743186
55,1539330649416515585,2022-06-21 19:33:20+00:00,"b'Veh\xc3\xadculos de #emergencia y #CruzRojaMexicana acuden a Carr  de Hillo-guaymas km 198, Hermosillo, Hermosillo a auxiliar por un #accidente de #tr\xc3\xa1nsito https://t.co/SBcU8IFWeW'",https://t.co/SBcU8IFWeW,29.0729673,-110.9559192
56,1539317088183013376,2022-06-21 18:39:27+00:00,"b'Una #ambulancia de #CruzRojaMexicana labora atendiendo a un paciente herido por un #accidente de #tr\xc3\xa1nsito en Paris, Prados Del Tepeyac, Cajeme https://t.co/9sGpNpJ68k'",https://t.co/9sGpNpJ68k,27.4826107,-109.9608762
57,1539309487097425920,2022-06-21 18:09:15+00:00,"b'En la direcci\xc3\xb3n 200, Prados Del Tepeyac, Cajeme, un veh\xc3\xadculo de #CruzRojaMexicana atiende un #accidente de #tr\xc3\xa1nsito, evita esas vialidades https://t.co/q7If4FClJ8'",https://t.co/q7If4FClJ8,27.4797596,-109.9578736
58,1539297632052514816,2022-06-21 17:22:08+00:00,"b'#CruzRojaMexicana est\xc3\xa1 atendiendo un #accidente de #tr\xc3\xa1nsito en Veracruz, San Benito, Hermosillo con una #ambulancia donada con tus aportaciones https://t.co/a8s5OyGSlT'",https://t.co/a8s5OyGSlT,29.0926081,-110.9655659
59,1539292896339365899,2022-06-21 17:03:19+00:00,"b'Personal de #CruzRojaMexicana auxilian a un paciente en 29, Santa Cecilia, Caborca, debido a un #accidente de #tr\xc3\xa1nsito https://t.co/irqjwS00sa'",https://t.co/irqjwS00sa,30.734238,-112.1594153
60,1539278101821247493,2022-06-21 16:04:32+00:00,"b'Una #ambulancia de #CruzRojaMexicana labora atendiendo a un paciente herido por un #accidente de #tr\xc3\xa1nsito en Camino del Seri, Las Praderas, Hermosillo https://t.co/i3omJKOQ5L'",https://t.co/i3omJKOQ5L,29.0597229,-110.9699458
61,1539259608778391553,2022-06-21 14:51:03+00:00,"b'Personal de #CruzRojaMexicana auxilian a un paciente en Venado Cola Blanca, Nuevo Hermosillo, Hermosillo, debido a un #accidente de #tr\xc3\xa1nsito https://t.co/mpOin46mx1'",https://t.co/mpOin46mx1,29.0073238,-110.933547
62,1539253415041196034,2022-06-21 14:26:26+00:00,"b'Nos reportan una #explosi\xc3\xb3n en Del Razo, Casa Blanca, Hermosillo, acude una #ambulancia de #CruzRojaMexicana a ayudar https://t.co/PwPPGIDG1B'",https://t.co/PwPPGIDG1B,29.0781138,-110.9394869
63,1539253326889590786,2022-06-21 14:26:05+00:00,"b'Una #ambulancia de #CruzRojaMexicana est\xc3\xa1 atendiendo, una #explosi\xc3\xb3n en Del Razo, Casa Blanca, Hermosillo https://t.co/PwPPGIDG1B'",https://t.co/PwPPGIDG1B,29.0781138,-110.9394869
64,1539247610904645632,2022-06-21 14:03:22+00:00,"b'Estamos atendiendo en #CruzRojaMexicana un #accidente de #tr\xc3\xa1nsito en Cjon. 20 de Noviembre, M\xc3\xa9xico, San Luis R\xc3\xado Colorado, extrema precacuciones al pasar por ese lugar https://t.co/OREnTW7JKq'",https://t.co/OREnTW7JKq,32.426201,-114.7389007
65,1539222894697652224,2022-06-21 12:25:10+00:00,"b'Nos reportan un #incendio en Tepache, Lomas de Madrid, Hermosillo, acude una #ambulancia de #CruzRojaMexicana a ayudar https://t.co/dszLdcnIIG'",https://t.co/dszLdcnIIG,29.1283727,-110.9759976
66,1539160486461177856,2022-06-21 08:17:10+00:00,"b'En la direcci\xc3\xb3n 16 de Septiembre, Bur\xc3\xb3crata, San Luis R\xc3\xado Colorado, un veh\xc3\xadculo de #CruzRojaMexicana atiende un #accidente de #tr\xc3\xa1nsito, evita esas vialidades https://t.co/7Mfb8hHNwS'",https://t.co/7Mfb8hHNwS,32.4672204,-114.7410067
67,1539115911105347587,2022-06-21 05:20:03+00:00,"b'Estamos atendiendo en #CruzRojaMexicana un #accidente de #tr\xc3\xa1nsito en Paseo las Plazas, Las Plazas, Guaymas, extrema precacuciones al pasar por ese lugar https://t.co/SMW2wzyRAv'",https://t.co/SMW2wzyRAv,27.9179167,-110.9160512
68,1539111523234217987,2022-06-21 05:02:37+00:00,"b'Un #accidente de #tr\xc3\xa1nsito en 31, Valles Duarte, Agua Prieta fue reportado a #CruzRojaMexicana, te recomendamos tener cuidado al transitar en esa zona https://t.co/o40TZH0bwD'",https://t.co/o40TZH0bwD,31.3054118,-109.5285442
69,1539102526456438784,2022-06-21 04:26:52+00:00,"b'Voluntarios a bordo de un veh\xc3\xadculo de #CruzRojaMexicana ayudan a los a afectados de un #incendio en Calle 41, Santa Cecilia, Caborca https://t.co/irqjwS00sa'",https://t.co/irqjwS00sa,30.734238,-112.1594153
70,1539098696624783361,2022-06-21 04:11:39+00:00,"b'Estamos atendiendo en #CruzRojaMexicana un #accidente de #tr\xc3\xa1nsito en 26, Mayocahui (El Cerro), Etchojoa, extrema precacuciones al pasar por ese lugar https://t.co/kDXibDWuPL'",https://t.co/kDXibDWuPL,27.0433333,-109.7377778
71,1539094946111684608,2022-06-21 03:56:44+00:00,"b'Al transitar por Turqueza, Valle Verde, Cajeme encontrar\xc3\xa1s un #accidente de #tr\xc3\xa1nsito atendido por #CruzRojaMexicana, ten cuidado y disminuye tu velocidad  https://t.co/i3UmAx88WS'",https://t.co/i3UmAx88WS,27.4486411,-109.9183329
72,1539093168871833602,2022-06-21 03:49:41+00:00,"b'En la direcci\xc3\xb3n Choque Entre 5 Vehiculos, Girasoles, Hermosillo, un veh\xc3\xadculo de #CruzRojaMexicana atiende un #accidente de #tr\xc3\xa1nsito, evita esas vialidades https://t.co/ZH2OQ1lQeF'",https://t.co/ZH2OQ1lQeF,29.0251231,-110.9644482
73,1539087879326126081,2022-06-21 03:28:39+00:00,"b'Una #ambulancia de #CruzRojaMexicana labora atendiendo a un paciente herido por un #accidente de #tr\xc3\xa1nsito en Arizona, El Cortijo UNISON, Hermosillo https://t.co/AbsW0CfmvM'",https://t.co/AbsW0CfmvM,29.1429897,-110.984194
74,1539061075982835713,2022-06-21 01:42:09+00:00,"b'Veh\xc3\xadculos de #emergencia y #CruzRojaMexicana acuden a Solidaridad, El Sahuaro, Hermosillo a auxiliar por un #accidente de #tr\xc3\xa1nsito https://t.co/qyjK2xgQWe'",https://t.co/qyjK2xgQWe,29.1017077,-110.9978006
75,1539058899839492098,2022-06-21 01:33:30+00:00,"b'Al transitar por Luis Encinas Jhonson, San Benito, Hermosillo encontrar\xc3\xa1s un #accidente de #tr\xc3\xa1nsito atendido por #CruzRojaMexicana, ten cuidado y disminuye tu velocidad  https://t.co/Iq84lmWqex'",https://t.co/Iq84lmWqex,29.0898237,-110.9663704
76,1539056512047407104,2022-06-21 01:24:01+00:00,"b'Personal de #CruzRojaMexicana auxilian a un paciente en No Reelecci\xc3\x93n, Ju\xc3\xa1rez, Navojoa, debido a un #accidente de #tr\xc3\xa1nsito https://t.co/Q3sotcS3Ls'",https://t.co/Q3sotcS3Ls,27.0673479,-109.4467338
77,1539055468382928898,2022-06-21 01:19:52+00:00,"b'Veh\xc3\xadculos de #emergencia y #CruzRojaMexicana acuden a 12 de Octubre, San Benito, Hermosillo a auxiliar por un #accidente de #tr\xc3\xa1nsito https://t.co/d7Q5yHQiOh'",https://t.co/d7Q5yHQiOh,29.0953913,-110.9706229
78,1539039784034881536,2022-06-21 00:17:33+00:00,"b'Una #ambulancia de #CruzRojaMexicana est\xc3\xa1 atendiendo un #accidente de #tr\xc3\xa1nsito en Chihuahua, Campestre, Cajeme extrema precauciones al pasar por ese lugar https://t.co/aTx5sFn0wG'",https://t.co/aTx5sFn0wG,27.4791478,-109.9372928
79,1539036601598328835,2022-06-21 00:04:54+00:00,"b'Al transitar por Calzada, Campanario, Cajeme encontrar\xc3\xa1s un #accidente de #tr\xc3\xa1nsito atendido por #CruzRojaMexicana, ten cuidado y disminuye tu velocidad  https://t.co/qYoC32eiqM'",https://t.co/qYoC32eiqM,27.489646,-109.910238
80,1539027125600243712,2022-06-20 23:27:15+00:00,"b'Una #ambulancia de #CruzRojaMexicana labora atendiendo a un paciente herido por un #accidente de #tr\xc3\xa1nsito en Carretera Cananea Agua Prieta, El Dorado, Cananea https://t.co/iBnvpyaEXy'",https://t.co/iBnvpyaEXy,31.0096482,-110.2556697
81,1539024239910694913,2022-06-20 23:15:47+00:00,"b'Veh\xc3\xadculos de #emergencia y #CruzRojaMexicana acuden a Rocaportense, Luis Donaldo Colosio, Puerto Pe\xc3\xb1asco a auxiliar por un #accidente de #tr\xc3\xa1nsito https://t.co/0t9vAff8gX'",https://t.co/0t9vAff8gX,31.3274573,-113.5114859
82,1539008474528743424,2022-06-20 22:13:08+00:00,"b'#CruzRojaMexicana est\xc3\xa1 atendiendo un #accidente de #tr\xc3\xa1nsito en 900, Marte R G\xc3\xb3mez, Cajeme con una #ambulancia donada con tus aportaciones https://t.co/VvqTcbOidB'",https://t.co/VvqTcbOidB,27.354565,-109.8905505
83,1539008317057531905,2022-06-20 22:12:30+00:00,"b'Una #ambulancia de #CruzRojaMexicana labora atendiendo a un paciente herido por un #accidente de #tr\xc3\xa1nsito en Boulevard Vills del rey, Villas Del Rey, Cajeme https://t.co/rfX1JjHlBF'",https://t.co/rfX1JjHlBF,27.4870124,-109.9781239
84,1539004385715539969,2022-06-20 21:56:53+00:00,"b'Una #ambulancia de #CruzRojaMexicana labora atendiendo a un paciente herido por un #accidente de #tr\xc3\xa1nsito en Carretera a Zamora, San Pedro El Saucito, Hermosillo https://t.co/8arC4TUJHH'",https://t.co/8arC4TUJHH,29.1916413,-110.8871642
85,1538991889453658117,2022-06-20 21:07:14+00:00,"b'Al transitar por Jaliosco, Ciudad Obreg\xc3\xb3n Centro (Fundo Legal), Cajeme encontrar\xc3\xa1s un #accidente de #tr\xc3\xa1nsito atendido por #CruzRojaMexicana, ten cuidado y disminuye tu velocidad  https://t.co/aWslyzI7YV'",https://t.co/aWslyzI7YV,27.4923317,-109.9315571
86,1538991577539944448,2022-06-20 21:05:59+00:00,"b'Voluntarios a bordo de un veh\xc3\xadculo de #CruzRojaMexicana ayudan a los a afectados de un #incendio en Av. Miguel Hidalgo, Comercial, San Luis R\xc3\xado Colorado https://t.co/jRNWlsRn0y'",https://t.co/jRNWlsRn0y,32.4757048,-114.7766235
87,1538975713692467207,2022-06-20 20:02:57+00:00,"b'Un #accidente de #tr\xc3\xa1nsito en 24, Ejidal, Agua Prieta fue reportado a #CruzRojaMexicana, te recomendamos tener cuidado al transitar en esa zona https://t.co/Is8xvQQ38z'",https://t.co/Is8xvQQ38z,31.3135243,-109.5642473
88,1538951559891017728,2022-06-20 18:26:58+00:00,"b'#CruzRojaMexicana est\xc3\xa1 atendiendo un #accidente de #tr\xc3\xa1nsito en Guerrero, Del Valle, Cajeme con una #ambulancia donada con tus aportaciones https://t.co/JqSNxrA6SW'",https://t.co/JqSNxrA6SW,27.4928818,-109.9508889
89,1538949564773842945,2022-06-20 18:19:03+00:00,"b'En la direcci\xc3\xb3n Loma Linda, R\xc3\xado Blanco, Cananea, un veh\xc3\xadculo de #CruzRojaMexicana atiende un #accidente de #tr\xc3\xa1nsito, evita esas vialidades https://t.co/VcmUX4vkgJ'",https://t.co/VcmUX4vkgJ,30.9895809,-110.2874781
90,1538947469597450241,2022-06-20 18:10:43+00:00,"b'Una #ambulancia de #CruzRojaMexicana labora atendiendo a un paciente herido por un #accidente de #tr\xc3\xa1nsito en Israel Gonzalez y/o Perimetral, Prados Del Sol, Hermosillo https://t.co/O2LxVxvJvx'",https://t.co/O2LxVxvJvx,29.1174986,-110.9618403
91,1538928195675774977,2022-06-20 16:54:08+00:00,"b'#CruzRojaMexicana est\xc3\xa1 ayudando en un #accidente de #tr\xc3\xa1nsito en Canal4, CENTRO, San Ignacio R\xc3\xado Muerto, ten cuidado al pasar por el lugar https://t.co/6o1WuD5tNx'",https://t.co/6o1WuD5tNx,27.3974237,-110.2449037
92,1538911146035630080,2022-06-20 15:46:23+00:00,"b'Un #accidente de #tr\xc3\xa1nsito en Kino, Privada de La Laguna, Cajeme fue reportado a #CruzRojaMexicana, te recomendamos tener cuidado al transitar en esa zona https://t.co/8ybQKsevXs'",https://t.co/8ybQKsevXs,27.4990094,-109.9658968
93,1538901987550429184,2022-06-20 15:09:59+00:00,"b'Veh\xc3\xadculos de #emergencia y #CruzRojaMexicana acuden a Carretera Tesia, La Laguna de Tesia, Navojoa a auxiliar por un #accidente de #tr\xc3\xa1nsito https://t.co/wkoI3fvyEW'",https://t.co/wkoI3fvyEW,27.1331192,-109.3917051
94,1538900518545899521,2022-06-20 15:04:09+00:00,"b'Estamos atendiendo en #CruzRojaMexicana un #accidente de #tr\xc3\xa1nsito en General Miguel Pina, Ley 57, Hermosillo, extrema precacuciones al pasar por ese lugar https://t.co/k4REZRDQaK'",https://t.co/k4REZRDQaK,29.1215691,-110.9706922
95,1538893016341131266,2022-06-20 14:34:21+00:00,"b'En la direcci\xc3\xb3n Independencia, Ortiz Rubio, Empalme, un veh\xc3\xadculo de #CruzRojaMexicana atiende un #accidente de #tr\xc3\xa1nsito, evita esas vialidades https://t.co/AGZrrz9zAX'",https://t.co/AGZrrz9zAX,27.9612178,-110.8068634
96,1538837144646701056,2022-06-20 10:52:20+00:00,"b'Al transitar por Dalias, Mezquite, San Luis R\xc3\xado Colorado encontrar\xc3\xa1s un #accidente de #tr\xc3\xa1nsito atendido por #CruzRojaMexicana, ten cuidado y disminuye tu velocidad  https://t.co/snJmgKyh9D'",https://t.co/snJmgKyh9D,32.4279272,-114.7766235
97,1538827287948320768,2022-06-20 10:13:10+00:00,"b'Estamos atendiendo en #CruzRojaMexicana un #accidente de #tr\xc3\xa1nsito en Principal, Camargo, Navojoa, extrema precacuciones al pasar por ese lugar https://t.co/6Nhi2QHm1G'",https://t.co/6Nhi2QHm1G,27.0935971,-109.5438186
98,1538818618045214720,2022-06-20 09:38:43+00:00,"b'Una #ambulancia de #CruzRojaMexicana labora atendiendo a un paciente herido por un #accidente de #tr\xc3\xa1nsito en Agustin Zamora, Pueblo Alegre, Hermosillo https://t.co/WdmPKo784z'",https://t.co/WdmPKo784z,29.1544141,-111.0100249
99,1538794832046477320,2022-06-20 08:04:12+00:00,"b'Personal de #CruzRojaMexicana auxilian a un paciente en Paseo Basalto, Paseos del Pedregal, Hermosillo, debido a un #accidente de #tr\xc3\xa1nsito https://t.co/6r1odfgYMm'",https://t.co/6r1odfgYMm,29.174187,-111.0203331
100,1538770641444392962,2022-06-20 06:28:04+00:00,"b'#CruzRojaMexicana est\xc3\xa1 atendiendo un #accidente de #tr\xc3\xa1nsito en Chilpancingo, Sahuaro, Hermosillo con una #ambulancia donada con tus aportaciones https://t.co/4zIzERiK7R'",https://t.co/4zIzERiK7R,29.1086645,-111.011764
101,1538768005198491654,2022-06-20 06:17:36+00:00,"b'En la direcci\xc3\xb3n Domicilio Conocido, Navobaxia, Huatabampo, un veh\xc3\xadculo de #CruzRojaMexicana atiende un #accidente de #tr\xc3\xa1nsito, evita esas vialidades https://t.co/ngGyNBj5js'",https://t.co/ngGyNBj5js,26.8353307,-109.6715005
102,1538759350474399744,2022-06-20 05:43:12+00:00,"b'Veh\xc3\xadculos de #emergencia y #CruzRojaMexicana acuden a Sin Nombre, Navolato, Etchojoa a auxiliar por un #accidente de #tr\xc3\xa1nsito https://t.co/omEOf38O0z'",https://t.co/omEOf38O0z,27.033611,-109.5666667
103,1538750880274604032,2022-06-20 05:09:33+00:00,"b'Un #accidente de #tr\xc3\xa1nsito en Carretera Internacional, Sierra Vista, Cajeme fue reportado a #CruzRojaMexicana, te recomendamos tener cuidado al transitar en esa zona https://t.co/vGqLMjnvDg'",https://t.co/vGqLMjnvDg,27.5233007,-109.926907
104,1538747874783133697,2022-06-20 04:57:36+00:00,"b'#CruzRojaMexicana est\xc3\xa1 ayudando en un #accidente de #tr\xc3\xa1nsito en Ni\xc3\x91os Heroes, San Felipe, Magdalena, ten cuidado al pasar por el lugar https://t.co/Atl5IlBFHY'",https://t.co/Atl5IlBFHY,30.6294202,-110.9643035
105,1538745571913113600,2022-06-20 04:48:27+00:00,"b'Al transitar por Principal Contra Esquina de la Iglesia, Camargo, Navojoa encontrar\xc3\xa1s un #accidente de #tr\xc3\xa1nsito atendido por #CruzRojaMexicana, ten cuidado y disminuye tu velocidad  https://t.co/6Nhi2QHm1G'",https://t.co/6Nhi2QHm1G,27.0935971,-109.5438186
106,1538741749660667905,2022-06-20 04:33:16+00:00,"b'Estamos atendiendo en #CruzRojaMexicana un #accidente de #tr\xc3\xa1nsito en Blvd Heroes de Nacosari, Villa Dorada, Empalme, extrema precacuciones al pasar por ese lugar https://t.co/ApYS1YFEcn'",https://t.co/ApYS1YFEcn,27.9597263,-110.7958216
107,1538725329094705154,2022-06-20 03:28:01+00:00,"b'Personal de #CruzRojaMexicana auxilian a un paciente en Villa del Turin, Fuente de Piedra, Hermosillo, debido a un #accidente de #tr\xc3\xa1nsito https://t.co/8whUOkcgEg'",https://t.co/8whUOkcgEg,29.1501895,-111.030712
108,1538723161432367104,2022-06-20 03:19:24+00:00,"b'Una #ambulancia de #CruzRojaMexicana est\xc3\xa1 atendiendo un #accidente de #tr\xc3\xa1nsito en Carretera a Ures, San Pedro El Saucito, Hermosillo extrema precauciones al pasar por ese lugar https://t.co/WzJajcwNG8'",https://t.co/WzJajcwNG8,29.1792713,-110.8854929
109,1538709207196868609,2022-06-20 02:23:57+00:00,"b'Al transitar por 12, Industrial, Caborca encontrar\xc3\xa1s un #accidente de #tr\xc3\xa1nsito atendido por #CruzRojaMexicana, ten cuidado y disminuye tu velocidad  https://t.co/7V4drkC6Qm'",https://t.co/7V4drkC6Qm,30.713567,-112.1758089
110,1538707672110878721,2022-06-20 02:17:51+00:00,"b'#CruzRojaMexicana est\xc3\xa1 ayudando en un #accidente de #tr\xc3\xa1nsito en Justo Sierra, Tepeyac, Cajeme, ten cuidado al pasar por el lugar https://t.co/DjheYQQpYP'",https://t.co/DjheYQQpYP,27.4834074,-109.9677668
111,1538707528158261248,2022-06-20 02:17:17+00:00,"b'Una #ambulancia de #CruzRojaMexicana labora atendiendo a un paciente herido por un #accidente de #tr\xc3\xa1nsito en Calzada Villa Nueva, Real de Sevilla, Cajeme https://t.co/NfSoIRdrjD'",https://t.co/NfSoIRdrjD,27.4822036,-109.9001488
112,1538705863011098624,2022-06-20 02:10:40+00:00,"b'Veh\xc3\xadculos de #emergencia y #CruzRojaMexicana acuden a Calzada Villa Nueva, Real de Sevilla, Cajeme a auxiliar por un #accidente de #tr\xc3\xa1nsito https://t.co/NfSoIRdrjD'",https://t.co/NfSoIRdrjD,27.4822036,-109.9001488
113,1538705185236729856,2022-06-20 02:07:58+00:00,"b'Al transitar por 7, El Alamito INFONAVIT, Agua Prieta encontrar\xc3\xa1s un #accidente de #tr\xc3\xa1nsito atendido por #CruzRojaMexicana, ten cuidado y disminuye tu velocidad  https://t.co/bTXdvmxPPa'",https://t.co/bTXdvmxPPa,31.3277951,-109.5129248
114,1538691007230971905,2022-06-20 01:11:38+00:00,"b'Estamos atendiendo en #CruzRojaMexicana un #accidente de #tr\xc3\xa1nsito en Mar de Cortez, Bah\xc3\xada de Kino Centro, Hermosillo, extrema precacuciones al pasar por ese lugar https://t.co/xxAOTzxySn'",https://t.co/xxAOTzxySn,28.8233777,-111.9418159
115,1538686192505479175,2022-06-20 00:52:30+00:00,"b'Voluntarios a bordo de un veh\xc3\xadculo de #CruzRojaMexicana ayudan a los a afectados de un #incendio en Carretera Internacional, Centro, Pitiquito https://t.co/3qXqc5q20i'",https://t.co/3qXqc5q20i,30.6780922,-112.0548641
116,1538683538932916225,2022-06-20 00:41:57+00:00,"b'#CruzRojaMexicana est\xc3\xa1 atendiendo un #accidente de #tr\xc3\xa1nsito en Jose Maria Morelos, Jes\xc3\xbas Garcia, Hermosillo con una #ambulancia donada con tus aportaciones https://t.co/WdAH2SqJq8'",https://t.co/WdAH2SqJq8,29.1154697,-110.9700366
117,1538682790404886530,2022-06-20 00:38:59+00:00,"b'Una #ambulancia de #CruzRojaMexicana labora atendiendo a un paciente herido por un #accidente de #tr\xc3\xa1nsito en Luz Valencia, Villa Del Real, Hermosillo https://t.co/UROtj5dOPs'",https://t.co/UROtj5dOPs,29.1465304,-111.0177251
118,1538674806098382850,2022-06-20 00:07:15+00:00,"b'Al transitar por Calle 7, Libertad, Empalme encontrar\xc3\xa1s un #accidente de #tr\xc3\xa1nsito atendido por #CruzRojaMexicana, ten cuidado y disminuye tu velocidad  https://t.co/yspKGM0w4w'",https://t.co/yspKGM0w4w,27.959247,-110.7971779
119,1538660599642607616,2022-06-19 23:10:48+00:00,"b'Una #ambulancia de #CruzRojaMexicana est\xc3\xa1 atendiendo un #accidente de #tr\xc3\xa1nsito en Roca Fuerte Salida Norte, Roca Fuerte, Guaymas extrema precauciones al pasar por ese lugar https://t.co/cZgtD0Z5BV'",https://t.co/cZgtD0Z5BV,27.9437691,-110.9332359
120,1538655581300568069,2022-06-19 22:50:52+00:00,"b'Veh\xc3\xadculos de #emergencia y #CruzRojaMexicana acuden a Talamante, Ju\xc3\xa1rez, Navojoa a auxiliar por un #accidente de #tr\xc3\xa1nsito https://t.co/RdNu8HB7ay'",https://t.co/RdNu8HB7ay,27.0670227,-109.449549
121,1538635707895488512,2022-06-19 21:31:53+00:00,"b'Personal de #CruzRojaMexicana auxilian a un paciente en Obregon, Benito Ju\xc3\xa1rez, Cajeme, debido a un #accidente de #tr\xc3\xa1nsito https://t.co/VvHHE3usKw'",https://t.co/VvHHE3usKw,27.49179,-109.9285527
122,1538631991553363971,2022-06-19 21:17:07+00:00,"b'Personal de #CruzRojaMexicana auxilian a un paciente en Calle 36 Norte km. 22, Bah\xc3\xada de Kino Centro, Hermosillo, debido a un #accidente de #tr\xc3\xa1nsito https://t.co/xxAOTzxySn'",https://t.co/xxAOTzxySn,28.8233777,-111.9418159
123,1538630229324873728,2022-06-19 21:10:07+00:00,"b'#CruzRojaMexicana est\xc3\xa1 atendiendo un #accidente de #tr\xc3\xa1nsito en Periferico, Tepeyac, Navojoa con una #ambulancia donada con tus aportaciones https://t.co/4KxrDOCjzg'",https://t.co/4KxrDOCjzg,27.0541503,-109.4303732
124,1538620400359309314,2022-06-19 20:31:04+00:00,"b'En la direcci\xc3\xb3n Antonio Quiroga, Girasoles, Hermosillo, un veh\xc3\xadculo de #CruzRojaMexicana atiende un #accidente de #tr\xc3\xa1nsito, evita esas vialidades https://t.co/ZH2OQ1lQeF'",https://t.co/ZH2OQ1lQeF,29.0251231,-110.9644482
125,1538610936872726528,2022-06-19 19:53:28+00:00,"b'Estamos atendiendo en #CruzRojaMexicana un #accidente de #tr\xc3\xa1nsito en Francisco Monteverde, Balderrama, Hermosillo, extrema precacuciones al pasar por ese lugar https://t.co/XU6JhX4sD6'",https://t.co/XU6JhX4sD6,29.1063563,-110.9715874
126,1538610229209968642,2022-06-19 19:50:39+00:00,"b'Un #accidente de #tr\xc3\xa1nsito en Av Contitucion, Libertad, Empalme fue reportado a #CruzRojaMexicana, te recomendamos tener cuidado al transitar en esa zona https://t.co/yspKGM0w4w'",https://t.co/yspKGM0w4w,27.959247,-110.7971779
127,1538607356036239362,2022-06-19 19:39:14+00:00,"b'#CruzRojaMexicana est\xc3\xa1 ayudando en un #accidente de #tr\xc3\xa1nsito en Francisco Monteverde, Balderrama, Hermosillo, ten cuidado al pasar por el lugar https://t.co/XU6JhWMRLy'",https://t.co/XU6JhWMRLy,29.1063563,-110.9715874
128,1538596387675414528,2022-06-19 18:55:39+00:00,"b'#CruzRojaMexicana est\xc3\xa1 atendiendo un #accidente de #tr\xc3\xa1nsito en 16 de Septiembre, Huatabampo Centro, Huatabampo con una #ambulancia donada con tus aportaciones https://t.co/KxedH5c9JD'",https://t.co/KxedH5c9JD,26.8238878,-109.642356
129,1538582808918216704,2022-06-19 18:01:41+00:00,"b'Una #ambulancia de #CruzRojaMexicana labora atendiendo a un paciente herido por un #accidente de #tr\xc3\xa1nsito en Carretera  a san Miguel de Horcasita, San Pedro El Saucito, Hermosillo https://t.co/WzJajcwNG8'",https://t.co/WzJajcwNG8,29.1792713,-110.8854929
130,1538577398093987840,2022-06-19 17:40:11+00:00,"b'Veh\xc3\xadculos de #emergencia y #CruzRojaMexicana acuden a Av Revolucion y 26, Residencias, San Luis R\xc3\xado Colorado a auxiliar por un #accidente de #tr\xc3\xa1nsito https://t.co/eFxxSLrRyc'",https://t.co/eFxxSLrRyc,32.4684805,-114.760588
131,1538576198598549506,2022-06-19 17:35:25+00:00,"b'Al transitar por Los Keresianos, Luis Donaldo Colosio, Nogales encontrar\xc3\xa1s un #accidente de #tr\xc3\xa1nsito atendido por #CruzRojaMexicana, ten cuidado y disminuye tu velocidad  https://t.co/D0imDuRyHi'",https://t.co/D0imDuRyHi,31.2723712,-110.9641364
132,1538574400596889609,2022-06-19 17:28:17+00:00,"b'Al transitar por Nicolas Bravo, Huatabampo Centro, Huatabampo encontrar\xc3\xa1s un #accidente de #tr\xc3\xa1nsito atendido por #CruzRojaMexicana, ten cuidado y disminuye tu velocidad  https://t.co/KxedH5c9JD'",https://t.co/KxedH5c9JD,26.8238878,-109.642356
133,1538574203972198405,2022-06-19 17:27:30+00:00,"b'Al transitar por Gildardo Magana, Palo Verde, Hermosillo encontrar\xc3\xa1s un #accidente de #tr\xc3\xa1nsito atendido por #CruzRojaMexicana, ten cuidado y disminuye tu velocidad  https://t.co/5YpntrVP19'",https://t.co/5YpntrVP19,29.0456266,-110.965503
134,1538569617374949377,2022-06-19 17:09:16+00:00,"b'#CruzRojaMexicana est\xc3\xa1 atendiendo un #accidente de #tr\xc3\xa1nsito en Pesquera Prolong sur, Ju\xc3\xa1rez, Navojoa con una #ambulancia donada con tus aportaciones https://t.co/Q3sotcS3Ls'",https://t.co/Q3sotcS3Ls,27.0673479,-109.4467338
135,1538568119198920704,2022-06-19 17:03:19+00:00,"b'En la direcci\xc3\xb3n Miguel Aleman, Ciudad Obreg\xc3\xb3n Centro (Fundo Legal), Cajeme, un veh\xc3\xadculo de #CruzRojaMexicana atiende un #accidente de #tr\xc3\xa1nsito, evita esas vialidades https://t.co/u8jzft5ycs'",https://t.co/u8jzft5ycs,27.4971698,-109.9305799
136,1538565838768308224,2022-06-19 16:54:15+00:00,"b'Veh\xc3\xadculos de #emergencia y #CruzRojaMexicana acuden a Miguel Aleman, Ciudad Obreg\xc3\xb3n Centro (Fundo Legal), Cajeme a auxiliar por un #accidente de #tr\xc3\xa1nsito https://t.co/u8jzft5ycs'",https://t.co/u8jzft5ycs,27.4971698,-109.9305799
137,1538563644488810500,2022-06-19 16:45:32+00:00,"b'Personal de #CruzRojaMexicana auxilian a un paciente en 8, Caborca Centro, Caborca, debido a un #accidente de #tr\xc3\xa1nsito https://t.co/2lOFw6EL06'",https://t.co/2lOFw6EL06,30.7123741,-112.1519636
138,1538549436875476993,2022-06-19 15:49:05+00:00,"b'Una #ambulancia de #CruzRojaMexicana est\xc3\xa1 atendiendo un #accidente de #tr\xc3\xa1nsito en Carretera a Sahuaripa, Hermosillo, Hermosillo extrema precauciones al pasar por ese lugar https://t.co/9YVqZ5LsnC'",https://t.co/9YVqZ5LsnC,29.0724088,-110.9544551
139,1538545448910303234,2022-06-19 15:33:14+00:00,"b'#CruzRojaMexicana est\xc3\xa1 ayudando en un #accidente de #tr\xc3\xa1nsito en Carretera a Sahuaripa, Hermosillo, Hermosillo, ten cuidado al pasar por el lugar https://t.co/9YVqZ5LsnC'",https://t.co/9YVqZ5LsnC,29.0724088,-110.9544551
140,1538545200078983175,2022-06-19 15:32:15+00:00,"b'Al transitar por Juan Hernandez, Colosio, Naco encontrar\xc3\xa1s un #accidente de #tr\xc3\xa1nsito atendido por #CruzRojaMexicana, ten cuidado y disminuye tu velocidad  https://t.co/JGAr3ACm38'",https://t.co/JGAr3ACm38,31.3260273,-109.9470019
141,1538537818846285824,2022-06-19 15:02:55+00:00,"b'En la direcci\xc3\xb3n Domicilio Conocido, La Savila, Huatabampo, un veh\xc3\xadculo de #CruzRojaMexicana atiende un #accidente de #tr\xc3\xa1nsito, evita esas vialidades https://t.co/mO9lQm0WP8'",https://t.co/mO9lQm0WP8,26.7701804,-109.626834
142,1538535792615759873,2022-06-19 14:54:52+00:00,"b'Una #ambulancia de #CruzRojaMexicana est\xc3\xa1 atendiendo un #accidente de #tr\xc3\xa1nsito en La Trinidad, La Trinidad, Huatabampo extrema precauciones al pasar por ese lugar https://t.co/KC4yLNmgaE'",https://t.co/KC4yLNmgaE,26.8377788,-109.6464477
143,1538526774484783104,2022-06-19 14:19:02+00:00,"b'Personal de #CruzRojaMexicana auxilian a un paciente en Francisco Monteverde, Luis Encinas, Hermosillo, debido a un #accidente de #tr\xc3\xa1nsito https://t.co/3YrswyRVba'",https://t.co/3YrswyRVba,29.1129545,-110.9812135
144,1538521303426154496,2022-06-19 13:57:17+00:00,"b'Veh\xc3\xadculos de #emergencia y #CruzRojaMexicana acuden a Jose Joaquin Herrera, Jardines, Hermosillo a auxiliar por un #accidente de #tr\xc3\xa1nsito https://t.co/pdmdCWctpf'",https://t.co/pdmdCWctpf,29.1285451,-110.9834489
145,1538491015094587392,2022-06-19 11:56:56+00:00,"b'Personal de #CruzRojaMexicana auxilian a un paciente en Calle Revolucion, La Herradura, Puerto Pe\xc3\xb1asco, debido a un #accidente de #tr\xc3\xa1nsito https://t.co/anRJZLXAwo'",https://t.co/anRJZLXAwo,31.3306736,-113.5387594
146,1538487330780192768,2022-06-19 11:42:18+00:00,"b'Personal de #CruzRojaMexicana auxilian a un paciente en Blvd  Josefa  o  de  Dominguez, Oriente, Puerto Pe\xc3\xb1asco, debido a un #accidente de #tr\xc3\xa1nsito https://t.co/ffJgjL7wmO'",https://t.co/ffJgjL7wmO,31.3202923,-113.5226277
147,1538486980367073281,2022-06-19 11:40:54+00:00,"b'#CruzRojaMexicana est\xc3\xa1 atendiendo un #accidente de #tr\xc3\xa1nsito en Blvd  Josefa  o  de  Dominguez, Oriente, Puerto Pe\xc3\xb1asco con una #ambulancia donada con tus aportaciones https://t.co/ffJgjL7wmO'",https://t.co/ffJgjL7wmO,31.3202923,-113.5226277
148,1538480646917603330,2022-06-19 11:15:44+00:00,"b'Un #accidente de #tr\xc3\xa1nsito en Blvd. del en Sue\xc3\x91o, Lomas de F\xc3\xa1tima, Nogales fue reportado a #CruzRojaMexicana, te recomendamos tener cuidado al transitar en esa zona https://t.co/UDeTDUQiQm'",https://t.co/UDeTDUQiQm,31.3237362,-110.9580659
149,1538472608609583105,2022-06-19 10:43:47+00:00,"b'Una #ambulancia de #CruzRojaMexicana labora atendiendo a un paciente herido por un #accidente de #tr\xc3\xa1nsito en Kilometro 9, Los Hornos, Cajeme https://t.co/dySKRlWYhF'",https://t.co/dySKRlWYhF,27.6834439,-109.9002505
150,1538465473813270528,2022-06-19 10:15:26+00:00,"b'#CruzRojaMexicana est\xc3\xa1 atendiendo un #accidente de #tr\xc3\xa1nsito en 16  de  Septiembre, Puerto, Puerto Pe\xc3\xb1asco con una #ambulancia donada con tus aportaciones https://t.co/QIf5MqsoAK'",https://t.co/QIf5MqsoAK,31.305552,-113.5441254
151,1538465393077100544,2022-06-19 10:15:07+00:00,"b'Una #ambulancia de #CruzRojaMexicana labora atendiendo a un paciente herido por un #accidente de #tr\xc3\xa1nsito en 16  de  Septiembre, Puerto, Puerto Pe\xc3\xb1asco https://t.co/QIf5MqsoAK'",https://t.co/QIf5MqsoAK,31.305552,-113.5441254
152,1538453435367956480,2022-06-19 09:27:36+00:00,"b'En la direcci\xc3\xb3n Manuel Gomez Morin, Pueblo Viejo, Caborca, un veh\xc3\xadculo de #CruzRojaMexicana atiende un #accidente de #tr\xc3\xa1nsito, evita esas vialidades https://t.co/P4DwFWVzN6'",https://t.co/P4DwFWVzN6,30.6987104,-112.1482377
153,1538433305464512513,2022-06-19 08:07:37+00:00,"b'Una #ambulancia de #CruzRojaMexicana est\xc3\xa1 atendiendo un #accidente de #tr\xc3\xa1nsito en 3, Lomas del Norte, Hermosillo extrema precauciones al pasar por ese lugar https://t.co/tf93bIIytA'",https://t.co/tf93bIIytA,29.1527345,-110.9845294
154,1538433166129745920,2022-06-19 08:07:04+00:00,"b'En la direcci\xc3\xb3n 3, Lomas del Norte, Hermosillo, un veh\xc3\xadculo de #CruzRojaMexicana atiende un #accidente de #tr\xc3\xa1nsito, evita esas vialidades https://t.co/tf93bIIytA'",https://t.co/tf93bIIytA,29.1527345,-110.9845294
155,1538419606645268480,2022-06-19 07:13:11+00:00,"b'Veh\xc3\xadculos de #emergencia y #CruzRojaMexicana acuden a Carranza, ferrocarrilera, Puerto Pe\xc3\xb1asco a auxiliar por un #accidente de #tr\xc3\xa1nsito https://t.co/HloKGjen0E'",https://t.co/HloKGjen0E,31.3180589,-113.5424919
156,1538399050323701760,2022-06-19 05:51:30+00:00,"b'Personal de #CruzRojaMexicana auxilian a un paciente en Carretera a Imuris, cuitaca, Cananea, debido a un #accidente de #tr\xc3\xa1nsito https://t.co/Ey14LNGphX'",https://t.co/Ey14LNGphX,31.0047221,-110.4925
157,1538392872805875712,2022-06-19 05:26:57+00:00,"b'Estamos atendiendo en #CruzRojaMexicana un #accidente de #tr\xc3\xa1nsito en 600, Independencia (Campo 104), B\xc3\xa1cum, extrema precacuciones al pasar por ese lugar https://t.co/v3c6H2l4I3'",https://t.co/v3c6H2l4I3,27.3605555,-110.161111
158,1538375077238030336,2022-06-19 04:16:14+00:00,"b'Una #ambulancia de #CruzRojaMexicana labora atendiendo a un paciente herido por un #accidente de #tr\xc3\xa1nsito en Reforma, Del Rosario, Nogales https://t.co/WCQS1nUt3u'",https://t.co/WCQS1nUt3u,31.3058266,-110.9423783
159,1538373693700702208,2022-06-19 04:10:44+00:00,"b'Un #accidente de #tr\xc3\xa1nsito en Reforma, Del Rosario, Nogales fue reportado a #CruzRojaMexicana, te recomendamos tener cuidado al transitar en esa zona https://t.co/uNcLpuKdcs'",https://t.co/uNcLpuKdcs,31.3288202,-110.9581147
160,1538345494224809985,2022-06-19 02:18:41+00:00,"b'En la direcci\xc3\xb3n 4ta, Caborca Centro, Caborca, un veh\xc3\xadculo de #CruzRojaMexicana atiende un #accidente de #tr\xc3\xa1nsito, evita esas vialidades https://t.co/2lOFw6EL06'",https://t.co/2lOFw6EL06,30.7123741,-112.1519636
161,1538332258419064838,2022-06-19 01:26:05+00:00,"b'Personal de #CruzRojaMexicana auxilian a un paciente en Paris, Bellavista, Cajeme, debido a un #accidente de #tr\xc3\xa1nsito https://t.co/6d1o6PXwtx'",https://t.co/6d1o6PXwtx,27.4883195,-109.9590482
162,1538299344788545538,2022-06-18 23:15:18+00:00,"b'Un #accidente de #tr\xc3\xa1nsito en Miguel Hidalgo, Puerto Pe\xc3\xb1asco Centro, Puerto Pe\xc3\xb1asco fue reportado a #CruzRojaMexicana, te recomendamos tener cuidado al transitar en esa zona https://t.co/YvHms3OBNp'",https://t.co/YvHms3OBNp,31.3118232,-113.5383920
163,1538291045330522112,2022-06-18 22:42:19+00:00,"b'Al transitar por Cuahtemoc, Constituci\xc3\xb3n, Navojoa encontrar\xc3\xa1s un #accidente de #tr\xc3\xa1nsito atendido por #CruzRojaMexicana, ten cuidado y disminuye tu velocidad  https://t.co/RubrziEe1F'",https://t.co/RubrziEe1F,27.0757438,-109.4571453
164,1538288513644371968,2022-06-18 22:32:16+00:00,"b'En la direcci\xc3\xb3n Carretera a Imuris, Los Campitos, Cananea, un veh\xc3\xadculo de #CruzRojaMexicana atiende un #accidente de #tr\xc3\xa1nsito, evita esas vialidades https://t.co/NxmhbINhUu'",https://t.co/NxmhbINhUu,30.9897648,-110.289179
165,1538286954806185987,2022-06-18 22:26:04+00:00,"b'Veh\xc3\xadculos de #emergencia y #CruzRojaMexicana acuden a Guillero Prieto, Constituci\xc3\xb3n, Cajeme a auxiliar por un #accidente de #tr\xc3\xa1nsito https://t.co/M7NegJIpbz'",https://t.co/M7NegJIpbz,27.4725383,-109.9490632
166,1538277482616561671,2022-06-18 21:48:26+00:00,"b'En la direcci\xc3\xb3n Pino Suarez, ferrocarrilera, Puerto Pe\xc3\xb1asco, un veh\xc3\xadculo de #CruzRojaMexicana atiende un #accidente de #tr\xc3\xa1nsito, evita esas vialidades https://t.co/hSLVfx3ZFf'",https://t.co/hSLVfx3ZFf,31.3191296,-113.5453254
167,1538254371208712193,2022-06-18 20:16:36+00:00,"b'Voluntarios a bordo de un veh\xc3\xadculo de #CruzRojaMexicana ayudan a los a afectados de un #incendio en 34 y Claudio Figueroa, Santa Cecilia, Caborca https://t.co/irqjwS00sa'",https://t.co/irqjwS00sa,30.734238,-112.1594153
168,1538246126154948608,2022-06-18 19:43:50+00:00,"b'#CruzRojaMexicana est\xc3\xa1 ayudando en un #accidente de #tr\xc3\xa1nsito en 11, El Alamito, Agua Prieta, ten cuidado al pasar por el lugar https://t.co/aVc9zFqrzO'",https://t.co/aVc9zFqrzO,29.2275654,-110.8737311
169,1538239939657273345,2022-06-18 19:19:15+00:00,"b'Un #accidente de #tr\xc3\xa1nsito en Av.alvaro Obregon, Altamira, Nogales fue reportado a #CruzRojaMexicana, te recomendamos tener cuidado al transitar en esa zona https://t.co/jyyMwprgyM'",https://t.co/jyyMwprgyM,31.3067223,-110.9394869
170,1538228064102096899,2022-06-18 18:32:04+00:00,"b'Personal de #CruzRojaMexicana auxilian a un paciente en 8 y q, Caborca Centro, Caborca, debido a un #accidente de #tr\xc3\xa1nsito https://t.co/2lOFw6EL06'",https://t.co/2lOFw6EL06,30.7123741,-112.1519636
171,1538221907778195462,2022-06-18 18:07:36+00:00,"b'#CruzRojaMexicana est\xc3\xa1 atendiendo un #accidente de #tr\xc3\xa1nsito en Carretera Internacional, Luis Donaldo Colosio, Empalme con una #ambulancia donada con tus aportaciones https://t.co/2w9d9AUcFr'",https://t.co/2w9d9AUcFr,27.9480464,-110.8150589
172,1538219233087303680,2022-06-18 17:56:58+00:00,"b'Al transitar por 12 de Octubre, San Benito, Hermosillo encontrar\xc3\xa1s un #accidente de #tr\xc3\xa1nsito atendido por #CruzRojaMexicana, ten cuidado y disminuye tu velocidad  https://t.co/a8s5OyGSlT'",https://t.co/a8s5OyGSlT,29.0926081,-110.9655659
173,1538218675270033410,2022-06-18 17:54:45+00:00,"b'Estamos atendiendo en #CruzRojaMexicana un #accidente de #tr\xc3\xa1nsito en No Releccion, Ju\xc3\xa1rez, Navojoa, extrema precacuciones al pasar por ese lugar https://t.co/Q3sotcS3Ls'",https://t.co/Q3sotcS3Ls,27.0673479,-109.4467338
174,1538214475999977473,2022-06-18 17:38:04+00:00,"b'Personal de #CruzRojaMexicana auxilian a un paciente en Obregon y g, Caborca Centro, Caborca, debido a un #accidente de #tr\xc3\xa1nsito https://t.co/2lOFw6EL06'",https://t.co/2lOFw6EL06,30.7123741,-112.1519636
176,1538182193406783490,2022-06-18 15:29:47+00:00,"b'Personal de #CruzRojaMexicana auxilian a un paciente en Rio Sonora, Villa Bonita, Hermosillo, debido a un #accidente de #tr\xc3\xa1nsito https://t.co/EGU0x0PgBv'",https://t.co/EGU0x0PgBv,29.0671687,-111.0086522
177,1538173603019104258,2022-06-18 14:55:39+00:00,"b'Veh\xc3\xadculos de #emergencia y #CruzRojaMexicana acuden a Rabida Norte, Tierra Nueva, Hermosillo a auxiliar por un #accidente de #tr\xc3\xa1nsito https://t.co/pof4PZWVty'",https://t.co/pof4PZWVty,29.1686614,-111.0135944
178,1538138349025869825,2022-06-18 12:35:34+00:00,"b'Personal de #CruzRojaMexicana auxilian a un paciente en Carretera las Calabazas, La Esperanza, Caborca, debido a un #accidente de #tr\xc3\xa1nsito https://t.co/XH4PnVLbsA'",https://t.co/XH4PnVLbsA,30.7221269,-112.1355697
179,1538104444159946752,2022-06-18 10:20:50+00:00,"b'En la direcci\xc3\xb3n Freemont, Benito Ju\xc3\xa1rez, Puerto Pe\xc3\xb1asco, un veh\xc3\xadculo de #CruzRojaMexicana atiende un #accidente de #tr\xc3\xa1nsito, evita esas vialidades https://t.co/4km632nV1M'",https://t.co/4km632nV1M,31.3130027,-113.5316202
180,1538102467220709376,2022-06-18 10:12:59+00:00,"b'#CruzRojaMexicana est\xc3\xa1 ayudando en un #accidente de #tr\xc3\xa1nsito en Francisco Monteverde, Balderrama, Hermosillo, ten cuidado al pasar por el lugar https://t.co/3WuGGZblSi'",https://t.co/3WuGGZblSi,29.1082892,-110.9715269
181,1538061133780770816,2022-06-18 07:28:44+00:00,"b'Un #accidente de #tr\xc3\xa1nsito en 5 de Febrero, Nueva Palmira, Cajeme fue reportado a #CruzRojaMexicana, te recomendamos tener cuidado al transitar en esa zona https://t.co/LAmKC6oR0w'",https://t.co/LAmKC6oR0w,27.4631358,-109.9325423
182,1538049545308971009,2022-06-18 06:42:41+00:00,"b'Personal de #CruzRojaMexicana auxilian a un paciente en Carretera Internacional km 94, Centro, Pitiquito, debido a un #accidente de #tr\xc3\xa1nsito https://t.co/3qXqc5q20i'",https://t.co/3qXqc5q20i,30.6780922,-112.0548641
183,1538048421755502592,2022-06-18 06:38:13+00:00,"b'#CruzRojaMexicana est\xc3\xa1 atendiendo un #accidente de #tr\xc3\xa1nsito en Carretera Altar Pitiquito km 87, Centro, Pitiquito con una #ambulancia donada con tus aportaciones https://t.co/3qXqc5q20i'",https://t.co/3qXqc5q20i,30.6780922,-112.0548641
184,1538022072303046656,2022-06-18 04:53:31+00:00,"b'Veh\xc3\xadculos de #emergencia y #CruzRojaMexicana acuden a Carretera Cananea Agua Prieta, Boulevard, Cananea a auxiliar por un #accidente de #tr\xc3\xa1nsito https://t.co/spfvWgiV2Z'",https://t.co/spfvWgiV2Z,30.9904187,-110.2683286
185,1538018295055470594,2022-06-18 04:38:31+00:00,"b'#CruzRojaMexicana est\xc3\xa1 ayudando en un #accidente de #tr\xc3\xa1nsito en Carretera Caborca Altar, Romanza, Caborca, ten cuidado al pasar por el lugar https://t.co/uY0tFExNCF'",https://t.co/uY0tFExNCF,30.7153138,-112.1302836
186,1538017838203424768,2022-06-18 04:36:42+00:00,"b'Estamos atendiendo en #CruzRojaMexicana un #accidente de #tr\xc3\xa1nsito en Carretera Caborca Altar, Romanza, Caborca, extrema precacuciones al pasar por ese lugar https://t.co/uY0tFExNCF'",https://t.co/uY0tFExNCF,30.7153138,-112.1302836
187,1538016845290016768,2022-06-18 04:32:45+00:00,"b'Al transitar por Carretera Caborca Altar, Romanza, Caborca encontrar\xc3\xa1s un #accidente de #tr\xc3\xa1nsito atendido por #CruzRojaMexicana, ten cuidado y disminuye tu velocidad  https://t.co/uY0tFExNCF'",https://t.co/uY0tFExNCF,30.7153138,-112.1302836
188,1538015299902943232,2022-06-18 04:26:37+00:00,"b'Una #ambulancia de #CruzRojaMexicana labora atendiendo a un paciente herido por un #accidente de #tr\xc3\xa1nsito en Avenida Trece, Bugambilias, Hermosillo https://t.co/10ZiwTT30W'",https://t.co/10ZiwTT30W,29.1156941,-110.9558794
189,1538014618852806657,2022-06-18 04:23:54+00:00,"b'#CruzRojaMexicana est\xc3\xa1 atendiendo un #accidente de #tr\xc3\xa1nsito en Maclovio Herrera, Esperanza, Nogales con una #ambulancia donada con tus aportaciones https://t.co/YR1Majf0VC'",https://t.co/YR1Majf0VC,31.3134964,-110.9558794
190,1538013300901830662,2022-06-18 04:18:40+00:00,"b'En la direcci\xc3\xb3n Maclovio Herrera, Esperanza, Nogales, un veh\xc3\xadculo de #CruzRojaMexicana atiende un #accidente de #tr\xc3\xa1nsito, evita esas vialidades https://t.co/YR1Majf0VC'",https://t.co/YR1Majf0VC,31.3134964,-110.9558794
191,1538013028259487744,2022-06-18 04:17:35+00:00,"b'Una #ambulancia de #CruzRojaMexicana labora atendiendo a un paciente herido por un #accidente de #tr\xc3\xa1nsito en 30, L\xc3\xa1zaro C\xc3\xa1rdenas, Caborca https://t.co/s6qpzGmdQ7'",https://t.co/s6qpzGmdQ7,30.7259874,-112.1445118
192,1538011853107757056,2022-06-18 04:12:55+00:00,"b'Una #ambulancia de #CruzRojaMexicana est\xc3\xa1 atendiendo un #accidente de #tr\xc3\xa1nsito en Avenida Trece, Bugambilias, Hermosillo extrema precauciones al pasar por ese lugar https://t.co/10ZiwTT30W'",https://t.co/10ZiwTT30W,29.1156941,-110.9558794
193,1538011108983701507,2022-06-18 04:09:57+00:00,"b'Personal de #CruzRojaMexicana auxilian a un paciente en Miguel Aleman, Ciudad Obreg\xc3\xb3n Centro (Fundo Legal), Cajeme, debido a un #accidente de #tr\xc3\xa1nsito https://t.co/GJtCI9MzkA'",https://t.co/GJtCI9MzkA,27.4937675,-109.9316753
194,1537984352516046848,2022-06-18 02:23:38+00:00,"b'Un #accidente de #tr\xc3\xa1nsito en Carretera N.16, Jos\xc3\xa9 Mar\xc3\xada Morelos y Pav\xc3\xb3n (La Atravezada), Empalme fue reportado a #CruzRojaMexicana, te recomendamos tener cuidado al transitar en esa zona https://t.co/P48yCpHoeS'",https://t.co/P48yCpHoeS,29.082287,-111.0590268
195,1537981999729676288,2022-06-18 02:14:17+00:00,"b'#CruzRojaMexicana est\xc3\xa1 atendiendo un #accidente de #tr\xc3\xa1nsito en De los Yaquis, Sahuaro, Hermosillo con una #ambulancia donada con tus aportaciones https://t.co/AMdUYbJr0x'",https://t.co/AMdUYbJr0x,29.1144995,-111.0132353
196,1537955703599398913,2022-06-18 00:29:48+00:00,"b'#CruzRojaMexicana est\xc3\xa1 ayudando en un #accidente de #tr\xc3\xa1nsito en Solidaridd, Palo Verde, Hermosillo, ten cuidado al pasar por el lugar https://t.co/iFKuh0vTPh'",https://t.co/iFKuh0vTPh,29.0472246,-110.9715269
197,1537942214185058305,2022-06-17 23:36:12+00:00,"b'Una #ambulancia de #CruzRojaMexicana est\xc3\xa1 atendiendo un #accidente de #tr\xc3\xa1nsito en Abasolo, Ju\xc3\xa1rez, Navojoa extrema precauciones al pasar por ese lugar https://t.co/Q3sotd9ED0'",https://t.co/Q3sotd9ED0,27.0673479,-109.4467338
198,1537932989484503041,2022-06-17 22:59:32+00:00,"b'Estamos atendiendo en #CruzRojaMexicana un #accidente de #tr\xc3\xa1nsito en Rosales, Centenario, Hermosillo, extrema precacuciones al pasar por ese lugar https://t.co/crT0gb4NA8'",https://t.co/crT0gb4NA8,29.075294,-110.9610952
199,1537928962965352450,2022-06-17 22:43:32+00:00,"b'Una #ambulancia de #CruzRojaMexicana labora atendiendo a un paciente herido por un #accidente de #tr\xc3\xa1nsito en 16, Luis Donaldo Colosio, Agua Prieta https://t.co/F2zRwQNR3s'",https://t.co/F2zRwQNR3s,31.3223694,-109.525569
200,1537919891876958212,2022-06-17 22:07:30+00:00,"b'Una #ambulancia de #CruzRojaMexicana est\xc3\xa1 atendiendo un #accidente de #tr\xc3\xa1nsito en Carretera   Blvd  Costero, Bella Sirena, Puerto Pe\xc3\xb1asco extrema precauciones al pasar por ese lugar https://t.co/5qO3wDG1xW'",https://t.co/5qO3wDG1xW,31.3258570,-113.5852504
201,1537916016935591937,2022-06-17 21:52:06+00:00,"b'Una #ambulancia de #CruzRojaMexicana est\xc3\xa1 atendiendo un #accidente de #tr\xc3\xa1nsito en Jose Lopez Portillo, Benito Ju\xc3\xa1rez, Hermosillo extrema precauciones al pasar por ese lugar https://t.co/CtbVkxWZ9u'",https://t.co/CtbVkxWZ9u,29.1259424,-110.9909002
202,1537915391334264833,2022-06-17 21:49:37+00:00,"b'#CruzRojaMexicana est\xc3\xa1 atendiendo un #accidente de #tr\xc3\xa1nsito en 6, Caborca Centro, Caborca con una #ambulancia donada con tus aportaciones https://t.co/rimrYzzchh'",https://t.co/rimrYzzchh,30.7103316,-112.1674233
203,1537914879838867458,2022-06-17 21:47:35+00:00,"b'#CruzRojaMexicana est\xc3\xa1 atendiendo un #accidente de #tr\xc3\xa1nsito en 6, Caborca Centro, Caborca con una #ambulancia donada con tus aportaciones https://t.co/2lOFw6n9Bw'",https://t.co/2lOFw6n9Bw,30.7123741,-112.1519636
204,1537909112947625984,2022-06-17 21:24:40+00:00,"b'Personal de #CruzRojaMexicana auxilian a un paciente en Juarez, Benito Ju\xc3\xa1rez, Puerto Pe\xc3\xb1asco, debido a un #accidente de #tr\xc3\xa1nsito https://t.co/4aOLHSlQ4B'",https://t.co/4aOLHSlQ4B,31.3060128,-113.5344521
205,1537904830856892422,2022-06-17 21:07:39+00:00,"b'Personal de #CruzRojaMexicana auxilian a un paciente en Luis Basurto, Bol\xc3\xadvar, Nogales, debido a un #accidente de #tr\xc3\xa1nsito https://t.co/NGCMZ7JR7V'",https://t.co/NGCMZ7JR7V,31.3099343,-110.9477529
206,1537900089837965314,2022-06-17 20:48:48+00:00,"b'Veh\xc3\xadculos de #emergencia y #CruzRojaMexicana acuden a Jose Lopez Portillo, Ley 57, Hermosillo a auxiliar por un #accidente de #tr\xc3\xa1nsito https://t.co/wTpX6CutJz'",https://t.co/wTpX6CutJz,29.1232015,-110.9745032
207,1537899300272758784,2022-06-17 20:45:40+00:00,"b'Al transitar por Republica de Panama, \xc3\x81lvaro Obreg\xc3\xb3n, Hermosillo encontrar\xc3\xa1s un #accidente de #tr\xc3\xa1nsito atendido por #CruzRojaMexicana, ten cuidado y disminuye tu velocidad  https://t.co/KgqReszkCo'",https://t.co/KgqReszkCo,29.1073492,-111.0028223
208,1537896780590829569,2022-06-17 20:35:39+00:00,"b'Estamos atendiendo en #CruzRojaMexicana un #accidente de #tr\xc3\xa1nsito en Periferico Norte, Modelo, Hermosillo, extrema precacuciones al pasar por ese lugar https://t.co/OKk4VOJzgR'",https://t.co/OKk4VOJzgR,29.1035352,-110.9581147
209,1537888660204363776,2022-06-17 20:03:23+00:00,"b'#CruzRojaMexicana est\xc3\xa1 ayudando en un #accidente de #tr\xc3\xa1nsito en Benito Juarez Garcia, Hermosillo Centro, Hermosillo, ten cuidado al pasar por el lugar https://t.co/GYeH9hyFvq'",https://t.co/GYeH9hyFvq,29.0834457,-110.953644
210,1537886067881172993,2022-06-17 19:53:05+00:00,"b'#CruzRojaMexicana est\xc3\xa1 ayudando en un #accidente de #tr\xc3\xa1nsito en La Bellota, Zona Industrial, Nogales, ten cuidado al pasar por el lugar https://t.co/AuRPjXuOgF'",https://t.co/AuRPjXuOgF,31.2702435,-110.9491733
211,1537849198779015168,2022-06-17 17:26:35+00:00,"b'Personal de #CruzRojaMexicana auxilian a un paciente en Costitucion, Plano Oriente, Cajeme, debido a un #accidente de #tr\xc3\xa1nsito https://t.co/tWJzHVnmjc'",https://t.co/tWJzHVnmjc,27.4572803,-109.9447249
212,1537848955664580609,2022-06-17 17:25:37+00:00,"b'En la direcci\xc3\xb3n Luis Orci, Balderrama, Hermosillo, un veh\xc3\xadculo de #CruzRojaMexicana atiende un #accidente de #tr\xc3\xa1nsito, evita esas vialidades https://t.co/C59QHjc3kV'",https://t.co/C59QHjc3kV,29.1077659,-110.9699327
213,1537845687601270784,2022-06-17 17:12:38+00:00,"b'En la direcci\xc3\xb3n Av Kino y 25, Residencias, San Luis R\xc3\xado Colorado, un veh\xc3\xadculo de #CruzRojaMexicana atiende un #accidente de #tr\xc3\xa1nsito, evita esas vialidades https://t.co/8aJoXLMH7I'",https://t.co/8aJoXLMH7I,32.4688106,-114.7588155
214,1537844600789995527,2022-06-17 17:08:19+00:00,"b'Una #ambulancia de #CruzRojaMexicana est\xc3\xa1 atendiendo un #accidente de #tr\xc3\xa1nsito en Carlos Balderrama, El Sahuaro, Hermosillo extrema precauciones al pasar por ese lugar https://t.co/zXWvLNChqp'",https://t.co/zXWvLNChqp,29.109851,-111.0101311
215,1537840038398107648,2022-06-17 16:50:11+00:00,"b'#CruzRojaMexicana est\xc3\xa1 atendiendo un #accidente de #tr\xc3\xa1nsito en Guerrero, Ciudad Obreg\xc3\xb3n Centro (Fundo Legal), Cajeme con una #ambulancia donada con tus aportaciones https://t.co/SQuRwyxa5l'",https://t.co/SQuRwyxa5l,27.4937548,-109.9468463
216,1537839823456817153,2022-06-17 16:49:20+00:00,"b'Veh\xc3\xadculos de #emergencia y #CruzRojaMexicana acuden a Guerrero, Ciudad Obreg\xc3\xb3n Centro (Fundo Legal), Cajeme a auxiliar por un #accidente de #tr\xc3\xa1nsito https://t.co/SQuRwyxa5l'",https://t.co/SQuRwyxa5l,27.4937548,-109.9468463
217,1537839148190601220,2022-06-17 16:46:39+00:00,"b'Una #ambulancia de #CruzRojaMexicana labora atendiendo a un paciente herido por un #accidente de #tr\xc3\xa1nsito en 12 de Octubre, Francisco Villa, Hermosillo https://t.co/AOVydE8S0d'",https://t.co/AOVydE8S0d,29.1164381,-110.9750197
218,1537835212570255361,2022-06-17 16:31:00+00:00,"b'Un #accidente de #tr\xc3\xa1nsito en Paseo Valle Grande, Valle Grande, Hermosillo fue reportado a #CruzRojaMexicana, te recomendamos tener cuidado al transitar en esa zona https://t.co/dsTKMiOXXf'",https://t.co/dsTKMiOXXf,29.084786,-110.9752525
219,1537822964569321473,2022-06-17 15:42:20+00:00,"b'Estamos atendiendo en #CruzRojaMexicana un #accidente de #tr\xc3\xa1nsito en 5 de Febrero, Francisco Eusebio Kino, Cajeme, extrema precacuciones al pasar por ese lugar https://t.co/DVHluB6xfw'",https://t.co/DVHluB6xfw,27.4446529,-109.9385212
220,1537820291551854593,2022-06-17 15:31:43+00:00,"b'#CruzRojaMexicana est\xc3\xa1 ayudando en un #accidente de #tr\xc3\xa1nsito en Benito Juarez Garcia, Adolfo L\xc3\xb3pez Mateos, Hermosillo, ten cuidado al pasar por el lugar https://t.co/jBV3SM0LXH'",https://t.co/jBV3SM0LXH,29.0288367,-110.9721384
221,1537804061013065728,2022-06-17 14:27:13+00:00,"b'Una #ambulancia de #CruzRojaMexicana est\xc3\xa1 atendiendo un #accidente de #tr\xc3\xa1nsito en Luis Encinas, Torre\xc3\xb3n, Hermosillo extrema precauciones al pasar por ese lugar https://t.co/pKyMCYJUyc'",https://t.co/pKyMCYJUyc,29.0913837,-110.9843893
222,1537697844668268545,2022-06-17 07:25:09+00:00,"b'Un #accidente de #tr\xc3\xa1nsito en Perimetral Norte, El Esplendor, Hermosillo fue reportado a #CruzRojaMexicana, te recomendamos tener cuidado al transitar en esa zona https://t.co/ppyIvQoXLk'",https://t.co/ppyIvQoXLk,29.1082514,-111.0284653
223,1537681473809047555,2022-06-17 06:20:06+00:00,"b'Personal de #CruzRojaMexicana auxilian a un paciente en Lopez Portillo, L\xc3\xb3pez Portillo, Hermosillo, debido a un #accidente de #tr\xc3\xa1nsito https://t.co/xqBUh2XO4k'",https://t.co/xqBUh2XO4k,29.1262864,-110.9711292
224,1537668417834082306,2022-06-17 05:28:13+00:00,"b'#CruzRojaMexicana est\xc3\xa1 ayudando en un #accidente de #tr\xc3\xa1nsito en Tecnologico, Del Rastro, Nogales, ten cuidado al pasar por el lugar https://t.co/QrszWefFHk'",https://t.co/QrszWefFHk,31.2984917,-110.9421624
225,1537655981211000832,2022-06-17 04:38:48+00:00,"b'Un #accidente de #tr\xc3\xa1nsito en Quiroga, San Francisco, Hermosillo fue reportado a #CruzRojaMexicana, te recomendamos tener cuidado al transitar en esa zona https://t.co/Hdp6LV1Uhw'",https://t.co/Hdp6LV1Uhw,29.1209179,-111.0259217
226,1537640464349798408,2022-06-17 03:37:09+00:00,"b'Un #accidente de #tr\xc3\xa1nsito en Jesus Garcia, Villa Itson, Cajeme fue reportado a #CruzRojaMexicana, te recomendamos tener cuidado al transitar en esa zona https://t.co/dsAPk2fgyw'",https://t.co/dsAPk2fgyw,27.4869971,-109.9671932
227,1537634163725049857,2022-06-17 03:12:07+00:00,"b'Estamos atendiendo en #CruzRojaMexicana un #accidente de #tr\xc3\xa1nsito en Zacatecas, Campestre, Cajeme, extrema precacuciones al pasar por ese lugar https://t.co/7Gvti8OgBu'",https://t.co/7Gvti8OgBu,27.4740315,-109.937809
228,1537632902413967361,2022-06-17 03:07:06+00:00,"b'Al transitar por Camino las Animas, 16 de Septiembre, Navojoa encontrar\xc3\xa1s un #accidente de #tr\xc3\xa1nsito atendido por #CruzRojaMexicana, ten cuidado y disminuye tu velocidad  https://t.co/AZl7Ow1oeF'",https://t.co/AZl7Ow1oeF,27.0669751,-109.4147569
229,1537629283602022401,2022-06-17 02:52:43+00:00,"b'Un #accidente de #tr\xc3\xa1nsito en Guadalupe Victoria, Cortinas 1ra. Secci\xc3\xb3n, Cajeme fue reportado a #CruzRojaMexicana, te recomendamos tener cuidado al transitar en esa zona https://t.co/LBvGhL5TyU'",https://t.co/LBvGhL5TyU,27.4819314,-109.9397472
230,1537629066542686208,2022-06-17 02:51:51+00:00,"b'Estamos atendiendo en #CruzRojaMexicana un #accidente de #tr\xc3\xa1nsito en Jalisco, Ampliaci\xc3\xb3n Miravalle, Cajeme, extrema precacuciones al pasar por ese lugar https://t.co/TN4oQSG55Q'",https://t.co/TN4oQSG55Q,27.4687438,-109.9300208
231,1537620316066922500,2022-06-17 02:17:05+00:00,"b'#CruzRojaMexicana est\xc3\xa1 ayudando en un #accidente de #tr\xc3\xa1nsito en 5, Deportiva, Agua Prieta, ten cuidado al pasar por el lugar https://t.co/XoIuNZJgBF'",https://t.co/XoIuNZJgBF,31.3294735,-109.5240814
232,1537619758484439040,2022-06-17 02:14:52+00:00,"b'Estamos atendiendo en #CruzRojaMexicana un #accidente de #tr\xc3\xa1nsito en Manuel r. Bobadilla, Primero Hermosillo, Hermosillo, extrema precacuciones al pasar por ese lugar https://t.co/Q4kCp30JjK'",https://t.co/Q4kCp30JjK,29.1309538,-110.9959855
233,1537614868777521153,2022-06-17 01:55:26+00:00,"b'Una #ambulancia de #CruzRojaMexicana labora atendiendo a un paciente herido por un #accidente de #tr\xc3\xa1nsito en Obregon, Reforma, Navojoa https://t.co/KcqBB5sHcx'",https://t.co/KcqBB5sHcx,27.081028,-109.448876
234,1537593510601408513,2022-06-17 00:30:34+00:00,"b'#CruzRojaMexicana est\xc3\xa1 atendiendo un #accidente de #tr\xc3\xa1nsito en Morelos, Ladrillera, Cajeme con una #ambulancia donada con tus aportaciones https://t.co/Ap7VgBFQbw'",https://t.co/Ap7VgBFQbw,27.4996925,-109.9662313
235,1537577526452752389,2022-06-16 23:27:03+00:00,"b'#CruzRojaMexicana est\xc3\xa1 ayudando en un #accidente de #tr\xc3\xa1nsito en Gardenia, Las Palmas, Huatabampo, ten cuidado al pasar por el lugar https://t.co/UrkbzTj49h'",https://t.co/UrkbzTj49h,26.8451077,-109.6340564
236,1537576439700197381,2022-06-16 23:22:44+00:00,"b'Personal de #CruzRojaMexicana auxilian a un paciente en Yucatan, Hidalgo, Cajeme, debido a un #accidente de #tr\xc3\xa1nsito https://t.co/PzFenmM5jC'",https://t.co/PzFenmM5jC,27.4848898,-109.9481267
237,1537575585702084614,2022-06-16 23:19:21+00:00,"b'Estamos atendiendo en #CruzRojaMexicana un #accidente de #tr\xc3\xa1nsito en Nicol\xc3\xa1s Bravo, Huatabampo Centro, Huatabampo, extrema precacuciones al pasar por ese lugar https://t.co/4MRBKHj1em'",https://t.co/4MRBKHj1em,26.8259301,-109.6459607
238,1537562033876783104,2022-06-16 22:25:30+00:00,"b'Una #ambulancia de #CruzRojaMexicana est\xc3\xa1 atendiendo un #accidente de #tr\xc3\xa1nsito en Carretera las Calavazas, Pagasa, Caborca extrema precauciones al pasar por ese lugar https://t.co/GyIDf6BW2j'",https://t.co/GyIDf6BW2j,30.7169512,-112.1378052
239,1537554673678405634,2022-06-16 21:56:15+00:00,"b'Estamos atendiendo en #CruzRojaMexicana un #accidente de #tr\xc3\xa1nsito en Conocida, Petrolera, Guaymas, extrema precacuciones al pasar por ese lugar https://t.co/PFrrf9oQ6n'",https://t.co/PFrrf9oQ6n,27.9352894,-110.9312907
240,1537551195035914245,2022-06-16 21:42:25+00:00,"b'En la direcci\xc3\xb3n Mazatan, CNOP, Hermosillo, un veh\xc3\xadculo de #CruzRojaMexicana atiende un #accidente de #tr\xc3\xa1nsito, evita esas vialidades https://t.co/2AOetae4om'",https://t.co/2AOetae4om,29.1322994,-110.9838214
241,1537543641991987200,2022-06-16 21:12:25+00:00,"b'Un #accidente de #tr\xc3\xa1nsito en Zaragoza, Ciudad Obreg\xc3\xb3n Centro (Fundo Legal), Cajeme fue reportado a #CruzRojaMexicana, te recomendamos tener cuidado al transitar en esa zona https://t.co/aTSqU7qXPQ'",https://t.co/aTSqU7qXPQ,27.4902362,-109.9365641
242,1537536445249990656,2022-06-16 20:43:49+00:00,"b'#CruzRojaMexicana est\xc3\xa1 ayudando en un #accidente de #tr\xc3\xa1nsito en Erasmo Cota, Santa Teresa, Cananea, ten cuidado al pasar por el lugar https://t.co/0ymAIoByqW'",https://t.co/0ymAIoByqW,30.9952606,-110.2711696
243,1537525965194203138,2022-06-16 20:02:10+00:00,"b'Al transitar por Av Durango y 27, Campestre, San Luis R\xc3\xado Colorado encontrar\xc3\xa1s un #accidente de #tr\xc3\xa1nsito atendido por #CruzRojaMexicana, ten cuidado y disminuye tu velocidad  https://t.co/W7THWwiQun'",https://t.co/W7THWwiQun,32.4514491,-114.7491984
244,1537525915537838085,2022-06-16 20:01:58+00:00,"b'En la direcci\xc3\xb3n Carretera Internacional, Las Villas, Guaymas, un veh\xc3\xadculo de #CruzRojaMexicana atiende un #accidente de #tr\xc3\xa1nsito, evita esas vialidades https://t.co/ImwUzsPwA3'",https://t.co/ImwUzsPwA3,27.9239676,-110.9149823
245,1537513837322182656,2022-06-16 19:13:59+00:00,"b'Estamos atendiendo en #CruzRojaMexicana un #accidente de #tr\xc3\xa1nsito en Plutarco Elias Calles, Bol\xc3\xadvar, Nogales, extrema precacuciones al pasar por ese lugar https://t.co/orTpGDjq9G'",https://t.co/orTpGDjq9G,31.312961,-110.9461931
246,1537494295703437312,2022-06-16 17:56:20+00:00,"b'En la direcci\xc3\xb3n Alvaro Obregon, Bacobampo, Etchojoa, un veh\xc3\xadculo de #CruzRojaMexicana atiende un #accidente de #tr\xc3\xa1nsito, evita esas vialidades https://t.co/PbUBsBw39u'",https://t.co/PbUBsBw39u,26.9888799,-109.6500021
247,1537490802615656448,2022-06-16 17:42:27+00:00,"b'En la direcci\xc3\xb3n Principal, Tierra Blanca, Navojoa, un veh\xc3\xadculo de #CruzRojaMexicana atiende un #accidente de #tr\xc3\xa1nsito, evita esas vialidades https://t.co/MCPeLybf9c'",https://t.co/MCPeLybf9c,27.06959,-109.4705318
248,1537474400794071043,2022-06-16 16:37:16+00:00,"b'Personal de #CruzRojaMexicana auxilian a un paciente en San Marcos, Hacienda Del Sol, Cajeme, debido a un #accidente de #tr\xc3\xa1nsito https://t.co/m5gVOcsXGO'",https://t.co/m5gVOcsXGO,27.4513846,-109.9310781
249,1537463862244564992,2022-06-16 15:55:24+00:00,"b'Una #ambulancia de #CruzRojaMexicana est\xc3\xa1 atendiendo un #accidente de #tr\xc3\xa1nsito en 5 de Febrero, Sonora, Cajeme extrema precauciones al pasar por ese lugar https://t.co/xQB3Z6Oj3v'",https://t.co/xQB3Z6Oj3v,27.4719129,-109.9345195
250,1537463685773393922,2022-06-16 15:54:42+00:00,"b'Veh\xc3\xadculos de #emergencia y #CruzRojaMexicana acuden a 5 de Febrero, Sonora, Cajeme a auxiliar por un #accidente de #tr\xc3\xa1nsito https://t.co/xQB3Z6Oj3v'",https://t.co/xQB3Z6Oj3v,27.4719129,-109.9345195
251,1537454618275418113,2022-06-16 15:18:40+00:00,"b'Personal de #CruzRojaMexicana auxilian a un paciente en Av h, Caborca Centro, Caborca, debido a un #accidente de #tr\xc3\xa1nsito https://t.co/2lOFw6EL06'",https://t.co/2lOFw6EL06,30.7123741,-112.1519636
252,1537454544120061954,2022-06-16 15:18:22+00:00,"b'#CruzRojaMexicana est\xc3\xa1 ayudando en un #accidente de #tr\xc3\xa1nsito en Jesus Garcia Morales, El Llano, Hermosillo, ten cuidado al pasar por el lugar https://t.co/kvaVnWnFN5'",https://t.co/kvaVnWnFN5,29.0976845,-111.021338
253,1537434539487727624,2022-06-16 13:58:53+00:00,"b'#CruzRojaMexicana est\xc3\xa1 ayudando en un #accidente de #tr\xc3\xa1nsito en Av Obregon, Moderna, Nogales, ten cuidado al pasar por el lugar https://t.co/2GuqpTHxzH'",https://t.co/2GuqpTHxzH,31.3086262,-110.944428
254,1537315212935712770,2022-06-16 06:04:43+00:00,"b'Una #ambulancia de #CruzRojaMexicana est\xc3\xa1 atendiendo un #accidente de #tr\xc3\xa1nsito en 12 de Octubre, Lomas de Madrid, Hermosillo extrema precauciones al pasar por ese lugar https://t.co/dszLdcnaT8'",https://t.co/dszLdcnaT8,29.1283727,-110.9759976
255,1537291140877144065,2022-06-16 04:29:04+00:00,"b'Una #ambulancia de #CruzRojaMexicana est\xc3\xa1 atendiendo un #accidente de #tr\xc3\xa1nsito en 300, Libertad, Cajeme extrema precauciones al pasar por ese lugar https://t.co/g5zEYEtIDD'",https://t.co/g5zEYEtIDD,27.4692206,-109.9557166
256,1537280943014256641,2022-06-16 03:48:32+00:00,"b'Una #ambulancia de #CruzRojaMexicana labora atendiendo a un paciente herido por un #accidente de #tr\xc3\xa1nsito en Camino del Seri, Azores Residencial, Hermosillo https://t.co/dxKyhO42x0'",https://t.co/dxKyhO42x0,29.1462274,-110.9625098
257,1537275424060936199,2022-06-16 03:26:36+00:00,"b'Estamos atendiendo en #CruzRojaMexicana un #accidente de #tr\xc3\xa1nsito en Guillermo Prieto, Francisco Villa, Navojoa, extrema precacuciones al pasar por ese lugar https://t.co/v79Vvlk6Vm'",https://t.co/v79Vvlk6Vm,27.0767875,-109.4251677
258,1537274513888534529,2022-06-16 03:22:59+00:00,"b'Una #ambulancia de #CruzRojaMexicana labora atendiendo a un paciente herido por un #accidente de #tr\xc3\xa1nsito en Israel, San Marcos, Hermosillo https://t.co/Deah5BCQjL'",https://t.co/Deah5BCQjL,29.0569587,-110.9722896
259,1537273210353373191,2022-06-16 03:17:49+00:00,"b'Un #accidente de #tr\xc3\xa1nsito en 200, Prados de La Laguna, Cajeme fue reportado a #CruzRojaMexicana, te recomendamos tener cuidado al transitar en esa zona https://t.co/Hzcj56m0sK'",https://t.co/Hzcj56m0sK,27.4826241,-109.9660008
260,1537263346436677644,2022-06-16 02:38:37+00:00,"b'Una #ambulancia de #CruzRojaMexicana est\xc3\xa1 atendiendo un #accidente de #tr\xc3\xa1nsito en Circuito Jardin, Conjunto Jard\xc3\xadn, Nogales extrema precauciones al pasar por ese lugar https://t.co/QrszWefFHk'",https://t.co/QrszWefFHk,31.2984917,-110.9421624
261,1537261393489035264,2022-06-16 02:30:51+00:00,"b'Personal de #CruzRojaMexicana auxilian a un paciente en Cananea, Zona Norte, Cajeme, debido a un #accidente de #tr\xc3\xa1nsito https://t.co/rtohYMDkgk'",https://t.co/rtohYMDkgk,27.5135341,-109.936673
262,1537231508607365120,2022-06-16 00:32:06+00:00,"b'Veh\xc3\xadculos de #emergencia y #CruzRojaMexicana acuden a De los Nogales, Zona Industrial, Nogales a auxiliar por un #accidente de #tr\xc3\xa1nsito https://t.co/AuRPjXuOgF'",https://t.co/AuRPjXuOgF,31.2702435,-110.9491733
263,1537227576556417024,2022-06-16 00:16:29+00:00,"b'Veh\xc3\xadculos de #emergencia y #CruzRojaMexicana acuden a Zaragoza, Urbanizable 3, Cajeme a auxiliar por un #accidente de #tr\xc3\xa1nsito https://t.co/CRvUC3vluY'",https://t.co/CRvUC3vluY,27.4892264,-109.9363518
264,1537226634775867392,2022-06-16 00:12:44+00:00,"b'Veh\xc3\xadculos de #emergencia y #CruzRojaMexicana acuden a Luis Orci, Balderrama, Hermosillo a auxiliar por un #accidente de #tr\xc3\xa1nsito https://t.co/3WuGGZsWJQ'",https://t.co/3WuGGZsWJQ,29.1082892,-110.9715269
265,1537225068618694656,2022-06-16 00:06:31+00:00,"b'Personal de #CruzRojaMexicana auxilian a un paciente en Veracruz, Hermosillo Centro, Hermosillo, debido a un #accidente de #tr\xc3\xa1nsito https://t.co/skHb6WJAZV'",https://t.co/skHb6WJAZV,29.0836946,-110.9547463
266,1537221224639569920,2022-06-15 23:51:14+00:00,"b'Al transitar por Bacobampo al Rodeo, Bacobampo, Etchojoa encontrar\xc3\xa1s un #accidente de #tr\xc3\xa1nsito atendido por #CruzRojaMexicana, ten cuidado y disminuye tu velocidad  https://t.co/oMN8KakV7U'",https://t.co/oMN8KakV7U,26.982775,-109.649515
267,1537211437596172288,2022-06-15 23:12:21+00:00,"b'#CruzRojaMexicana est\xc3\xa1 ayudando en un #accidente de #tr\xc3\xa1nsito en Alvaro Obregon, Zona Industrial, Nogales, ten cuidado al pasar por el lugar https://t.co/TV4obiR22l'",https://t.co/TV4obiR22l,31.2768927,-110.9440073
268,1537210743925489665,2022-06-15 23:09:36+00:00,"b'Un #accidente de #tr\xc3\xa1nsito en Francisco Monteverde, Ley 57, Hermosillo fue reportado a #CruzRojaMexicana, te recomendamos tener cuidado al transitar en esa zona https://t.co/8nh7JUU46k'",https://t.co/8nh7JUU46k,29.120534,-110.9730171
269,1537210735754870786,2022-06-15 23:09:34+00:00,"b'Una #ambulancia de #CruzRojaMexicana labora atendiendo a un paciente herido por un #accidente de #tr\xc3\xa1nsito en 6, Centro, Agua Prieta https://t.co/PMI9GSmjbI'",https://t.co/PMI9GSmjbI,31.3279592,-109.5505816
270,1537197323528421377,2022-06-15 22:16:16+00:00,"b'Un #accidente de #tr\xc3\xa1nsito en Conosida, Altos de Jecopaco, Cajeme fue reportado a #CruzRojaMexicana, te recomendamos tener cuidado al transitar en esa zona https://t.co/58rfsxg59M'",https://t.co/58rfsxg59M,27.1702777,-109.8922222
271,1537169428244271105,2022-06-15 20:25:25+00:00,"b'Un #accidente de #tr\xc3\xa1nsito en Jesus Garcia Morales, El Llano, Hermosillo fue reportado a #CruzRojaMexicana, te recomendamos tener cuidado al transitar en esa zona https://t.co/PtWHVSzG2O'",https://t.co/PtWHVSzG2O,29.0961789,-111.014244
272,1537161875795886081,2022-06-15 19:55:24+00:00,"b'Un #accidente de #tr\xc3\xa1nsito en Calzada Constitucion, La Mesa, San Luis R\xc3\xado Colorado fue reportado a #CruzRojaMexicana, te recomendamos tener cuidado al transitar en esa zona https://t.co/4l3hrxRfpm'",https://t.co/4l3hrxRfpm,32.4685454,-114.7980518
273,1537161536380317696,2022-06-15 19:54:04+00:00,"b'#CruzRojaMexicana est\xc3\xa1 ayudando en un #accidente de #tr\xc3\xa1nsito en Hotel Bella Sirena, Bella Sirena, Puerto Pe\xc3\xb1asco, ten cuidado al pasar por el lugar https://t.co/rjyqAeGRVj'",https://t.co/rjyqAeGRVj,31.3257233,-113.5853347
274,1537156683641851904,2022-06-15 19:34:47+00:00,"b'Personal de #CruzRojaMexicana auxilian a un paciente en Cuarta, Solidaridad, Nogales, debido a un #accidente de #tr\xc3\xa1nsito https://t.co/1Ihw4Y9lkH'",https://t.co/1Ihw4Y9lkH,31.2916969,-110.9193691
275,1537155700492738568,2022-06-15 19:30:52+00:00,"b'Un #accidente de #tr\xc3\xa1nsito en 41, Pueblo Nuevo, Agua Prieta fue reportado a #CruzRojaMexicana, te recomendamos tener cuidado al transitar en esa zona https://t.co/law2bmwhcV'",https://t.co/law2bmwhcV,31.2994763,-109.5442521
276,1537152034624905217,2022-06-15 19:16:18+00:00,"b'Una #ambulancia de #CruzRojaMexicana est\xc3\xa1 atendiendo un #accidente de #tr\xc3\xa1nsito en Benemerito de las Americas, Papagos, General Plutarco El\xc3\xadas Calles extrema precauciones al pasar por ese lugar https://t.co/b63wPwgBYu'",https://t.co/b63wPwgBYu,31.8609374,-112.867154
277,1537151663164768256,2022-06-15 19:14:50+00:00,"b'Personal de #CruzRojaMexicana auxilian a un paciente en Hotel Bella Sirena, Bella Sirena, Puerto Pe\xc3\xb1asco, debido a un #accidente de #tr\xc3\xa1nsito https://t.co/rjyqAeGRVj'",https://t.co/rjyqAeGRVj,31.3257233,-113.5853347
278,1537141274477842435,2022-06-15 18:33:33+00:00,"b'#CruzRojaMexicana est\xc3\xa1 ayudando en un #accidente de #tr\xc3\xa1nsito en Quintana roo, San Benito, Hermosillo, ten cuidado al pasar por el lugar https://t.co/QD2pcqXwga'",https://t.co/QD2pcqXwga,29.0963971,-110.9651877
279,1537134414295187458,2022-06-15 18:06:17+00:00,"b'En la direcci\xc3\xb3n No Releccion, Mirasierra, Cajeme, un veh\xc3\xadculo de #CruzRojaMexicana atiende un #accidente de #tr\xc3\xa1nsito, evita esas vialidades https://t.co/2AMScXA4tn'",https://t.co/2AMScXA4tn,27.4916575,-109.9173444
280,1537120082102558723,2022-06-15 17:09:20+00:00,"b'Veh\xc3\xadculos de #emergencia y #CruzRojaMexicana acuden a General Jose Maria Yanez, San Benito, Hermosillo a auxiliar por un #accidente de #tr\xc3\xa1nsito https://t.co/FdTaogPeUG'",https://t.co/FdTaogPeUG,29.0936453,-110.9605816
281,1537110011234615296,2022-06-15 16:29:19+00:00,"b'Una #ambulancia de #CruzRojaMexicana est\xc3\xa1 atendiendo un #accidente de #tr\xc3\xa1nsito en Otancahui, Ladrillera, Cajeme extrema precauciones al pasar por ese lugar https://t.co/iLnU7RpWAl'",https://t.co/iLnU7RpWAl,27.5026447,-109.9580419
282,1537101151165984768,2022-06-15 15:54:07+00:00,"b'#CruzRojaMexicana est\xc3\xa1 atendiendo un #accidente de #tr\xc3\xa1nsito en Carretera a Kino km 76, Miguel Alem\xc3\xa1n Centro, Hermosillo con una #ambulancia donada con tus aportaciones https://t.co/oFKb0EIxkj'",https://t.co/oFKb0EIxkj,29.0902742,-110.9632897
283,1537091605685063680,2022-06-15 15:16:11+00:00,"b'En la direcci\xc3\xb3n Esteban Pivac, Josefa Ortiz de Dominguez, Puerto Pe\xc3\xb1asco, un veh\xc3\xadculo de #CruzRojaMexicana atiende un #accidente de #tr\xc3\xa1nsito, evita esas vialidades https://t.co/mDsnwkDQpM'",https://t.co/mDsnwkDQpM,31.3222035,-113.5183123
284,1537089039307792385,2022-06-15 15:05:59+00:00,"b'En la direcci\xc3\xb3n Calle 8 ave 5, Guaymas Centro, Guaymas, un veh\xc3\xadculo de #CruzRojaMexicana atiende un #accidente de #tr\xc3\xa1nsito, evita esas vialidades https://t.co/qGaZqvhbo4'",https://t.co/qGaZqvhbo4,27.9230146,-110.894036
285,1537072968953643013,2022-06-15 14:02:07+00:00,"b'#CruzRojaMexicana est\xc3\xa1 atendiendo un #accidente de #tr\xc3\xa1nsito en Carretera Mexico Salida sur, Misioneros, Navojoa con una #ambulancia donada con tus aportaciones https://t.co/q44hcmWeYw'",https://t.co/q44hcmWeYw,27.0515002,-109.4340915
286,1537072910346637313,2022-06-15 14:01:53+00:00,"b'#CruzRojaMexicana est\xc3\xa1 ayudando en un #accidente de #tr\xc3\xa1nsito en Carretera Mexico Salida sur, Misioneros, Navojoa, ten cuidado al pasar por el lugar https://t.co/q44hcmWeYw'",https://t.co/q44hcmWeYw,27.0515002,-109.4340915
287,1537064551472144385,2022-06-15 13:28:41+00:00,"b'En la direcci\xc3\xb3n Luis Encinas Jhonson, Los Naranjos, Hermosillo, un veh\xc3\xadculo de #CruzRojaMexicana atiende un #accidente de #tr\xc3\xa1nsito, evita esas vialidades https://t.co/F01qpMDTCp'",https://t.co/F01qpMDTCp,29.0775167,-110.926075
288,1536966410165010434,2022-06-15 06:58:42+00:00,"b'Estamos atendiendo en #CruzRojaMexicana un #accidente de #tr\xc3\xa1nsito en Camino del Seri, La Verbena, Hermosillo, extrema precacuciones al pasar por ese lugar https://t.co/0OGEEongQb'",https://t.co/0OGEEongQb,29.0656052,-110.9829326
289,1536944807276339202,2022-06-15 05:32:51+00:00,"b'Nos reportan un #incendio en Eduardo w. Villa, \xc3\x81lvaro Obreg\xc3\xb3n, Hermosillo, acude una #ambulancia de #CruzRojaMexicana a ayudar https://t.co/KgqResQW0Y'",https://t.co/KgqResQW0Y,29.1073492,-111.0028223
290,1536933521821945857,2022-06-15 04:48:01+00:00,"b'Una #ambulancia de #CruzRojaMexicana labora atendiendo a un paciente herido por un #accidente de #tr\xc3\xa1nsito en Tecnologico, Conjunto Jard\xc3\xadn, Nogales https://t.co/lx3ILVC3Z6'",https://t.co/lx3ILVC3Z6,31.289403,-110.961508
291,1536927463380492288,2022-06-15 04:23:56+00:00,"b'Estamos atendiendo en #CruzRojaMexicana un #accidente de #tr\xc3\xa1nsito en Coahuila, Cortinas 4ta. Secci\xc3\xb3n, Cajeme, extrema precacuciones al pasar por ese lugar https://t.co/RULXHWxQq0'",https://t.co/RULXHWxQq0,27.4934041,-109.940064
292,1536916228089991169,2022-06-15 03:39:17+00:00,"b'Una #ambulancia de #CruzRojaMexicana est\xc3\xa1 atendiendo, un #incendio en Juan Jose Aguirre, Balderrama, Hermosillo https://t.co/VRicUmo5MR'",https://t.co/VRicUmo5MR,29.1093293,-110.9694678
293,1536910974149660673,2022-06-15 03:18:25+00:00,"b'Cuerpos de #emergencia y #CruzRojaMexicana est\xc3\xa1n auxiliando en un #incendio en Rafael Mu\xc3\x91oz, Industrial, Caborca https://t.co/7V4drkC6Qm'",https://t.co/7V4drkC6Qm,30.713567,-112.1758089
294,1536885180916432899,2022-06-15 01:35:55+00:00,"b'Una #ambulancia de #CruzRojaMexicana est\xc3\xa1 atendiendo un #accidente de #tr\xc3\xa1nsito en Agustin f. Zamora, Pueblo Alegre, Hermosillo extrema precauciones al pasar por ese lugar https://t.co/WdmPKo784z'",https://t.co/WdmPKo784z,29.1544141,-111.0100249
295,1536883124944134145,2022-06-15 01:27:45+00:00,"b'#CruzRojaMexicana est\xc3\xa1 atendiendo un #accidente de #tr\xc3\xa1nsito en Blvd. Ignacio Salazar, \xc3\x81lvaro Obreg\xc3\xb3n, Hermosillo con una #ambulancia donada con tus aportaciones https://t.co/2uqqJEemi6'",https://t.co/2uqqJEemi6,29.1103291,-111.0016372
296,1536882629047472131,2022-06-15 01:25:47+00:00,"b'Al transitar por Agustin f. Zamora, Pueblo Alegre, Hermosillo encontrar\xc3\xa1s un #accidente de #tr\xc3\xa1nsito atendido por #CruzRojaMexicana, ten cuidado y disminuye tu velocidad  https://t.co/WdmPKo784z'",https://t.co/WdmPKo784z,29.1544141,-111.0100249
297,1536877676203585542,2022-06-15 01:06:06+00:00,"b'Un #accidente de #tr\xc3\xa1nsito en Internacional, Miravalle, Cajeme fue reportado a #CruzRojaMexicana, te recomendamos tener cuidado al transitar en esa zona https://t.co/VASfUOowXn'",https://t.co/VASfUOowXn,27.4732190,-109.9214022
298,1536857023274532864,2022-06-14 23:44:02+00:00,"b'Personal de #CruzRojaMexicana auxilian a un paciente en Garcia Morales, La Manga, Hermosillo, debido a un #accidente de #tr\xc3\xa1nsito https://t.co/CSsFeQs52H'",https://t.co/CSsFeQs52H,29.0864916,-111.0370989
299,1536856836388839425,2022-06-14 23:43:17+00:00,"b'Al transitar por Garcia Morales, La Manga, Hermosillo encontrar\xc3\xa1s un #accidente de #tr\xc3\xa1nsito atendido por #CruzRojaMexicana, ten cuidado y disminuye tu velocidad  https://t.co/CSsFeQs52H'",https://t.co/CSsFeQs52H,29.0864916,-111.0370989
300,1536852961867231232,2022-06-14 23:27:54+00:00,"b'Estamos atendiendo en #CruzRojaMexicana un #accidente de #tr\xc3\xa1nsito en Carr Internacional, Zona Industrial, Nogales, extrema precacuciones al pasar por ese lugar https://t.co/AuRPjXdLeF'",https://t.co/AuRPjXdLeF,31.2702435,-110.9491733
301,1536844870207389699,2022-06-14 22:55:44+00:00,"b'#CruzRojaMexicana est\xc3\xa1 atendiendo un #accidente de #tr\xc3\xa1nsito en Blvd. Serna, Hacienda de La Flor, Hermosillo con una #ambulancia donada con tus aportaciones https://t.co/DMwXRD0fM1'",https://t.co/DMwXRD0fM1,29.0715715,-110.9422417
302,1536842659137986560,2022-06-14 22:46:57+00:00,"b'Un #accidente de #tr\xc3\xa1nsito en Certa, CTS CROC, Nogales fue reportado a #CruzRojaMexicana, te recomendamos tener cuidado al transitar en esa zona https://t.co/jHeakcBlnD'",https://t.co/jHeakcBlnD,31.315551,-110.931948
303,1536842371605975041,2022-06-14 22:45:49+00:00,"b'En Oaxaca, Aviaci\xc3\xb3n, Caborca, elementos de #CruzRojaMexicana est\xc3\xa1n ayudando en un #incendio https://t.co/ABtb3V0FSV'",https://t.co/ABtb3V0FSV,30.7288422,-112.1743186
304,1536835895923441666,2022-06-14 22:20:05+00:00,"b'Veh\xc3\xadculos de #emergencia y #CruzRojaMexicana acuden a Carretera Cananea Imuris km 92, Parque Industrial, Cananea a auxiliar por un #accidente de #tr\xc3\xa1nsito https://t.co/8XtFhJWFoj'",https://t.co/8XtFhJWFoj,30.9950203,-110.2780091
305,1536833505828691969,2022-06-14 22:10:35+00:00,"b'Un #accidente de #tr\xc3\xa1nsito en Blvd. dr Ernesto Guevara del Campo, Las Palomas, Puerto Pe\xc3\xb1asco fue reportado a #CruzRojaMexicana, te recomendamos tener cuidado al transitar en esa zona https://t.co/qRfm295Xaj'",https://t.co/qRfm295Xaj,31.3232717,-113.5664323
306,1536822793555349506,2022-06-14 21:28:01+00:00,"b'Estamos atendiendo en #CruzRojaMexicana un #accidente de #tr\xc3\xa1nsito en Hidalgo, Ciudad Obreg\xc3\xb3n Centro (Fundo Legal), Cajeme, extrema precacuciones al pasar por ese lugar https://t.co/w8hnHs2BqF'",https://t.co/w8hnHs2BqF,27.4943164,-109.9374717
307,1536816969550274567,2022-06-14 21:04:52+00:00,"b'Una #ambulancia de #CruzRojaMexicana est\xc3\xa1 atendiendo un #accidente de #tr\xc3\xa1nsito en Luis Encinas Jhonson, Alameda, Hermosillo extrema precauciones al pasar por ese lugar https://t.co/yfx6hfwRjE'",https://t.co/yfx6hfwRjE,29.092306,-110.9823312
308,1536816860171214851,2022-06-14 21:04:26+00:00,"b'Estamos atendiendo en #CruzRojaMexicana un #accidente de #tr\xc3\xa1nsito en Luis Encinas Jhonson, Alameda, Hermosillo, extrema precacuciones al pasar por ese lugar https://t.co/yfx6hfwRjE'",https://t.co/yfx6hfwRjE,29.092306,-110.9823312
309,1536816782551433216,2022-06-14 21:04:08+00:00,"b'#CruzRojaMexicana est\xc3\xa1 ayudando en un #accidente de #tr\xc3\xa1nsito en Luis Encinas Jhonson, Alameda, Hermosillo, ten cuidado al pasar por el lugar https://t.co/yfx6hfwRjE'",https://t.co/yfx6hfwRjE,29.092306,-110.9823312
310,1536808910195236865,2022-06-14 20:32:51+00:00,"b'En Av h, Caborca Centro, Caborca, elementos de #CruzRojaMexicana est\xc3\xa1n ayudando en un #incendio https://t.co/PghSdxeshZ'",https://t.co/PghSdxeshZ,30.7148062,-112.1539107
311,1536804888281219074,2022-06-14 20:16:52+00:00,"b'Una #ambulancia de #CruzRojaMexicana labora atendiendo a un paciente herido por un #accidente de #tr\xc3\xa1nsito en Brasil, Esperanza, Nogales https://t.co/YR1MaiXq44'",https://t.co/YR1MaiXq44,31.3134964,-110.9558794
312,1536803825759227908,2022-06-14 20:12:39+00:00,"b'Veh\xc3\xadculos de #emergencia y #CruzRojaMexicana acuden a Solidaridad, El Sahuaro, Hermosillo a auxiliar por un #accidente de #tr\xc3\xa1nsito https://t.co/ExApgklFP2'",https://t.co/ExApgklFP2,29.1016605,-110.9976902
313,1536784619185614848,2022-06-14 18:56:19+00:00,"b'Veh\xc3\xadculos de #emergencia y #CruzRojaMexicana acuden a Luis Encinas Jhonson, Torre\xc3\xb3n, Hermosillo a auxiliar por un #accidente de #tr\xc3\xa1nsito https://t.co/pKyMCYJUyc'",https://t.co/pKyMCYJUyc,29.0913837,-110.9843893
314,1536769268976607232,2022-06-14 17:55:20+00:00,"b'Estamos atendiendo en #CruzRojaMexicana un #accidente de #tr\xc3\xa1nsito en Carretra Internacional, Acacias Residencial, Nogales, extrema precacuciones al pasar por ese lugar https://t.co/jdfm37ZRkI'",https://t.co/jdfm37ZRkI,31.2920883,-110.9639737
315,1536754650434658304,2022-06-14 16:57:14+00:00,"b'Personal de #CruzRojaMexicana auxilian a un paciente en Ignacio Allende, Ciudad Obreg\xc3\xb3n Centro (Fundo Legal), Cajeme, debido a un #accidente de #tr\xc3\xa1nsito https://t.co/wlDgXytgee'",https://t.co/wlDgXytgee,27.4939583,-109.9333110
316,1536750184939536384,2022-06-14 16:39:30+00:00,"b'Una #ambulancia de #CruzRojaMexicana est\xc3\xa1 atendiendo un #accidente de #tr\xc3\xa1nsito en 5 de Mayo, Residencias, San Luis R\xc3\xado Colorado extrema precauciones al pasar por ese lugar https://t.co/8aJoXLMH7I'",https://t.co/8aJoXLMH7I,32.4688106,-114.7588155
317,1536732374096039936,2022-06-14 15:28:43+00:00,"b'Una #ambulancia de #CruzRojaMexicana labora atendiendo a un paciente herido por un #accidente de #tr\xc3\xa1nsito en Carretera Sonoyta - Puerto Pe\xc3\xb1asco, Papagos, General Plutarco El\xc3\xadas Calles https://t.co/b63wPwgBYu'",https://t.co/b63wPwgBYu,31.8609374,-112.867154
318,1536728060623560704,2022-06-14 15:11:35+00:00,"b'Personal de #CruzRojaMexicana auxilian a un paciente en Jesus Garcias, San Felipe, Magdalena, debido a un #accidente de #tr\xc3\xa1nsito https://t.co/7OXvTLXM5g'",https://t.co/7OXvTLXM5g,30.6244776,-110.9610952
319,1536635970090590208,2022-06-14 09:05:39+00:00,"b'Una #ambulancia de #CruzRojaMexicana est\xc3\xa1 atendiendo, un #incendio en Matape, Lomas de Madrid, Hermosillo https://t.co/dszLdcnaT8'",https://t.co/dszLdcnaT8,29.1283727,-110.9759976
320,1536599955003015168,2022-06-14 06:42:32+00:00,"b'Un #accidente de #tr\xc3\xa1nsito en Carretera Internacional, Curvas de Quijano, Imuris fue reportado a #CruzRojaMexicana, te recomendamos tener cuidado al transitar en esa zona https://t.co/sDiADYFtYE'",https://t.co/sDiADYFtYE,30.7894634,-110.844861
321,1536597739500347392,2022-06-14 06:33:44+00:00,"b'Un #accidente de #tr\xc3\xa1nsito en Ignacio Salazar, Nueva Espa\xc3\xb1a, Hermosillo fue reportado a #CruzRojaMexicana, te recomendamos tener cuidado al transitar en esa zona https://t.co/dcpN7dLbv4'",https://t.co/dcpN7dLbv4,29.1151441,-111.00394
322,1536597091396505600,2022-06-14 06:31:09+00:00,"b'#CruzRojaMexicana est\xc3\xa1 ayudando en un #accidente de #tr\xc3\xa1nsito en Tabasco, Cortinas 1ra. Secci\xc3\xb3n, Cajeme, ten cuidado al pasar por el lugar https://t.co/v3wCvSnCZj'",https://t.co/v3wCvSnCZj,27.4747415,-109.9425388
323,1536565609726631938,2022-06-14 04:26:04+00:00,"b'Un #accidente de #tr\xc3\xa1nsito en Tetabiate, Ciudad Obreg\xc3\xb3n Centro (Fundo Legal), Cajeme fue reportado a #CruzRojaMexicana, te recomendamos tener cuidado al transitar en esa zona https://t.co/r3IOv9JI3o'",https://t.co/r3IOv9JI3o,27.5015731,-109.9362582
324,1536551860726906881,2022-06-14 03:31:26+00:00,"b'Al transitar por Israel Gonzalez y/o Perimetral, Residencial Kino, Hermosillo encontrar\xc3\xa1s un #accidente de #tr\xc3\xa1nsito atendido por #CruzRojaMexicana, ten cuidado y disminuye tu velocidad  https://t.co/RFQznvqzFO'",https://t.co/RFQznvqzFO,29.1216612,-110.9606783
325,1536547450579730432,2022-06-14 03:13:54+00:00,"b'Un #accidente de #tr\xc3\xa1nsito en Israel Gonzalez y/o Perimetral, Residencial Kino, Hermosillo fue reportado a #CruzRojaMexicana, te recomendamos tener cuidado al transitar en esa zona https://t.co/RFQznvqzFO'",https://t.co/RFQznvqzFO,29.1216612,-110.9606783
326,1536546538457026560,2022-06-14 03:10:17+00:00,"b'#CruzRojaMexicana est\xc3\xa1 atendiendo un #accidente de #tr\xc3\xa1nsito en Lazaro Cardenas del rio, Virreyes, Hermosillo con una #ambulancia donada con tus aportaciones https://t.co/LavAJhFTtI'",https://t.co/LavAJhFTtI,29.125785,-110.9961161
327,1536540499380686851,2022-06-14 02:46:17+00:00,"b'Personal de #CruzRojaMexicana auxilian a un paciente en Lazaro Cardenas del rio, San Jose de las Minitas, Hermosillo, debido a un #accidente de #tr\xc3\xa1nsito https://t.co/QbVea4vN37'",https://t.co/QbVea4vN37,29.0431685,-110.9879197
328,1536539468777259009,2022-06-14 02:42:11+00:00,"b'Estamos atendiendo en #CruzRojaMexicana un #accidente de #tr\xc3\xa1nsito en Marmol, Pedregal, Cajeme, extrema precacuciones al pasar por ese lugar https://t.co/ScK3PnCwmf'",https://t.co/ScK3PnCwmf,27.4559809,-109.9405448
329,1536505096166686721,2022-06-14 00:25:36+00:00,"b'En la direcci\xc3\xb3n Solidaridad, Sahuaro Indeco, Hermosillo, un veh\xc3\xadculo de #CruzRojaMexicana atiende un #accidente de #tr\xc3\xa1nsito, evita esas vialidades https://t.co/QpM26PEQSE'",https://t.co/QpM26PEQSE,29.1019568,-110.9976064
330,1536504782491377664,2022-06-14 00:24:21+00:00,"b'Una #ambulancia de #CruzRojaMexicana labora atendiendo a un paciente herido por un #accidente de #tr\xc3\xa1nsito en Conocido, El Valiente Kil\xc3\xb3metro Veinte (Libramiento), Guaymas https://t.co/M0wXwiV7ZX'",https://t.co/M0wXwiV7ZX,28.0424512,-110.9396326
331,1536498460240887808,2022-06-13 23:59:14+00:00,"b'Estamos atendiendo en #CruzRojaMexicana un #accidente de #tr\xc3\xa1nsito en Jalisco, Ciudad Obreg\xc3\xb3n Centro (Fundo Legal), Cajeme, extrema precacuciones al pasar por ese lugar https://t.co/jCamp0NJYK'",https://t.co/jCamp0NJYK,27.492361,-109.9315698
332,1536489006501969921,2022-06-13 23:21:40+00:00,"b'Un #accidente de #tr\xc3\xa1nsito en Manuel Doblado, Cortinas 1ra. Secci\xc3\xb3n, Cajeme fue reportado a #CruzRojaMexicana, te recomendamos tener cuidado al transitar en esa zona https://t.co/zIoUxc7kQg'",https://t.co/zIoUxc7kQg,27.4790877,-109.9397546
333,1536480315320967168,2022-06-13 22:47:08+00:00,"b'Estamos atendiendo en #CruzRojaMexicana un #accidente de #tr\xc3\xa1nsito en 35, Nuevo Progreso, Agua Prieta, extrema precacuciones al pasar por ese lugar https://t.co/8aT8yaxg36'",https://t.co/8aT8yaxg36,31.303007,-109.5324505
334,1536479130442772480,2022-06-13 22:42:25+00:00,"b'Al transitar por Carretera de Hermosillo a Guaymas, Hermosillo, Hermosillo encontrar\xc3\xa1s un #accidente de #tr\xc3\xa1nsito atendido por #CruzRojaMexicana, ten cuidado y disminuye tu velocidad  https://t.co/SBcU8IFWeW'",https://t.co/SBcU8IFWeW,29.0729673,-110.9559192
335,1536469353033523201,2022-06-13 22:03:34+00:00,"b'Una #ambulancia de #CruzRojaMexicana est\xc3\xa1 atendiendo un #accidente de #tr\xc3\xa1nsito en Republica de Panama, Jes\xc3\xbas Vega Aguilar, Hermosillo extrema precauciones al pasar por ese lugar https://t.co/Uvxo8gt3Zy'",https://t.co/Uvxo8gt3Zy,29.1269466,-111.0137219
336,1536467387872071682,2022-06-13 21:55:46+00:00,"b'Veh\xc3\xadculos de #emergencia y #CruzRojaMexicana acuden a Carretera de Hermosillo a Guaymas, Hermosillo, Hermosillo a auxiliar por un #accidente de #tr\xc3\xa1nsito https://t.co/SBcU8IFWeW'",https://t.co/SBcU8IFWeW,29.0729673,-110.9559192
337,1536462808753266689,2022-06-13 21:37:34+00:00,"b'Una #ambulancia de #CruzRojaMexicana labora atendiendo a un paciente herido por un #accidente de #tr\xc3\xa1nsito en Allende, Ciudad Obreg\xc3\xb3n Centro (Fundo Legal), Cajeme https://t.co/CR3Br6rIy4'",https://t.co/CR3Br6rIy4,27.4962931,-109.9354671
338,1536460740999139330,2022-06-13 21:29:21+00:00,"b'En la direcci\xc3\xb3n Obregon, Comercial, San Luis R\xc3\xado Colorado, un veh\xc3\xadculo de #CruzRojaMexicana atiende un #accidente de #tr\xc3\xa1nsito, evita esas vialidades https://t.co/jRNWlsRn0y'",https://t.co/jRNWlsRn0y,32.4757048,-114.7766235
339,1536458947334373376,2022-06-13 21:22:13+00:00,"b'#CruzRojaMexicana est\xc3\xa1 atendiendo un #accidente de #tr\xc3\xa1nsito en De los Ganaderos, Los Naranjos, Hermosillo con una #ambulancia donada con tus aportaciones https://t.co/F01qpMDTCp'",https://t.co/F01qpMDTCp,29.0775167,-110.926075
340,1536456524607930368,2022-06-13 21:12:36+00:00,"b'En la direcci\xc3\xb3n Luis Donaldo Colocio, La Mesa, Imuris, un veh\xc3\xadculo de #CruzRojaMexicana atiende un #accidente de #tr\xc3\xa1nsito, evita esas vialidades https://t.co/KIyDGeRBam'",https://t.co/KIyDGeRBam,30.7452777,-110.9091667
341,1536453876039163911,2022-06-13 21:02:04+00:00,"b'Una #ambulancia de #CruzRojaMexicana est\xc3\xa1 atendiendo un #accidente de #tr\xc3\xa1nsito en Luis Donaldo Colosio Murrieta, Prados Del Centenario, Hermosillo extrema precauciones al pasar por ese lugar https://t.co/OBQHHdcGcP'",https://t.co/OBQHHdcGcP,29.080465,-110.9689395
342,1536451967475671046,2022-06-13 20:54:29+00:00,"b'#CruzRojaMexicana est\xc3\xa1 atendiendo un #accidente de #tr\xc3\xa1nsito en Carretera Huatabampo-tabare, Jupare, Huatabampo con una #ambulancia donada con tus aportaciones https://t.co/7Ghk1dsotW'",https://t.co/7Ghk1dsotW,26.8001793,-109.7015530
343,1536439898617614338,2022-06-13 20:06:32+00:00,"b'#CruzRojaMexicana est\xc3\xa1 atendiendo un #accidente de #tr\xc3\xa1nsito en Puerto de Salina Cruz, Real Del Valle, Cajeme con una #ambulancia donada con tus aportaciones https://t.co/ivf7UuJRKc'",https://t.co/ivf7UuJRKc,27.4625074,-109.9364611
